Name,Longitude,Main_Cuisine,Latitude,Address,District_Code,Cuisine,Type_Code,Info_Code,Exp_Date,Location_Tag,Sub_Cuisine,Price_Range,YYYYMM
'TAI HING,114.17723,Hong Kong Style,22.27905,"SHOP 1-3, G/F, CIGNA TOWER, 470-484 JAFFE ROAD, WAN CHAI, HONG KONG",12,Chinese BBQ,RL,,2016-02-14,Aberdeen,Chinese BBQ,$51-100,201601
---,113.96675,Hong Kong Style,22.37257,"SHOP NOS. 17 & 96, OCEAN WALK, 168-236 WU CHUI ROAD, TUEN MUN, NEW TERRITORIES",93,BBQ,RL,,2016-10-22,Kwun Tong,BBQ,$201-400,201601
---,114.02335,Hong Kong Style,22.43814,"G/F, 453B MA TIN TSUEN, SHAP PAT HEUNG, YUEN LONG, NEW TERRITORIES",94,BBQ,RL,,2016-11-22,Kwun Tong,BBQ,$201-400,201601
---,114.02531,Hong Kong Style,22.4421,"SHOP 7, G/F, ON NING BUILDING, 20-30B MA TIN ROAD, YUEN LONG, NEW TERRITORIES",94,BBQ,RL,#G#H,2016-08-17,Kwun Tong,BBQ,$201-400,201601
---,114.02773,Hong Kong Style,22.44335,"G/F, 23B HONG KING STREET, YUEN LONG, NEW TERRITORIES",94,BBQ,RL,,2016-02-16,Kwun Tong,BBQ,$201-400,201601
---,114.02934,Hong Kong Style,22.44621,"SHOP A1, G/F, KOON WONG MANSION 2-18 YUEN LONG ON NING ROAD, YUEN LONG, NEW TERRITORIES",94,BBQ,RL,,2016-02-06,Kwun Tong,BBQ,$201-400,201601
---,114.03071,Hong Kong Style,22.44167,"SHOP NO. 31B, G/F, HOP YICK CENTRE, 17-53 HOP YICK ROAD, YUEN LONG, NEW TERRITORIES",94,BBQ,RL,,2016-10-07,Kwun Tong,BBQ,$201-400,201601
---,114.03368,Hong Kong Style,22.44199,"SHOP 20, G/F, HO SHUN KING BUILDING, 3 FUNG YAU STREET SOUTH, YUEN LONG, NEW TERRITORIES",94,BBQ,RR,,2016-01-20,Kwun Tong,BBQ,$201-400,201601
---,114.05932,Hong Kong Style,22.35162,"G/F, 9 MA WAN MAIN STREET VILLAGE EAST, MA WAN, TSUEN WAN, NEW TERRITORIES",92,BBQ,RR,,2016-03-01,Kwun Tong,BBQ,$201-400,201601
---,114.12179,Hong Kong Style,22.3692,"SHOP NO. 66, G/F, PODIUM B, WEALTHY GARDEN, 12-28 TSUEN FU STREET, TSUEN WAN, NEW TERRITORIES",92,BBQ,RR,,2016-03-16,Kwun Tong,BBQ,$201-400,201601
---,114.12864,Hong Kong Style,22.50406,"SHOP A, B, C, D, G/F, 16 FU HING STREET, SHEUNG SHUI, NEW TERRITORIES",96,BBQ,RR,,2016-08-10,Kwun Tong,BBQ,$201-400,201601
---,114.17002,Hong Kong Style,22.31998,"1/F, FORTUNE CREST, 138 SAI YEUNG CHOI STREET SOUTH, MONG KOK, KOWLOON",62,BBQ,RL,,2017-01-14,Kwun Tong,BBQ,$201-400,201601
---,114.17192,Hong Kong Style,22.36343,"SHOP NO. 117, G/F, HIN KENG SHOPPING CENTRE, HIN KENG ESTATE, 69 CHE KUNG MIU ROAD, SHA TIN, NEW TERRITORIES",97,BBQ,RR,,2016-08-31,Kwun Tong,BBQ,$201-400,201601
---,114.20534,Hong Kong Style,22.3819,"STALL NOS. 33, 34 AND 35, G/F, YU CHUI LUCKY MARKET, YU CHUI SHOPPING CENTRE, YU CHUI COURT, SHA TIN, NEW TERRITORIES",97,BBQ,RL,,2016-09-07,Kwun Tong,BBQ,$201-400,201601
---           /   HK Diner,114.00468,Hong Kong Style,22.45704,"SHOP G01C, G/F, PHASE 2, KINGSWOOD GINZA, 12-18 TIN YAN ROAD, TIN SHUI WAI, YUEN LONG, NEW TERRITORIES",94,Tea Restaurant,RL,,2016-08-11,Wong Tai Sin,Tea Restaurant,$51-100,201601
0.5 Degree,114.19189,Japanese,22.27823,"SHOP B, G/F., 12-13 SHEPHERD STREET, TAI HANG, HONG KONG",12,Japanese,RL,#G#H,2016-07-10,Central,Peruvian,$401-800,201601
001 Company Limited,114.20959,Japanese,22.29144,"SHOP G1 OF LOWER G/F AND SHOP G2 OF UPPER G/F., WELLEY BUILDING, 97 WELLINGTON STREET, CENTRAL, HONG KONG",18,"Japanese, Western",RR,,2016-06-26,Western District,Western,$201-400,201601
02 PUB,114.16998,Western,22.31164,"G/F & C/L, 262-264 TEMPLE STREET, JORDAN, KOWLOON",61,International,RL,#C,2016-03-04,Tin Hau,Wine,$201-400,201601
03 By Oyster 3,114.21734,Western,22.28676,"5/F (PORTION A), CITYPLAZA 1, 18 TAIKOO SHING ROAD, TAIKOO SHING, HONG KONG",11,Western,RR,,2016-10-14,Kwun Tong,Upper-floor Cafe,$101-200,201601
10 ST. FRANCIS,114.16944,Western,22.27608,"G/F., 10 ST. FRANCIS STREET, WANCHAI, HONG KONG",12,Western,RR,,2016-05-23,Wan Chai,Wine,$101-200,201601
100米,114.10288,Hong Kong Style,22.36324,"SHOP 211, 2/F, CHEUNG FAT SHOPPING CENTRE, CHEUNG FAT ESTATE, 6 TAM KON SHAN ROAD, TSING YI, NEW TERRITORIES",91,Noodles/Rice Noodles,RL,,2016-02-15,Wan Chai,Noodles/Rice Noodles,$101-200,201601
100米,114.1667,Hong Kong Style,22.45314,"SHOP NO. 14, G/F, SHOPPING MALL, TREASURE GARDEN, 1 ON CHEE ROAD, TAI PO, NEW TERRITORIES",95,Noodles/Rice Noodles,RL,,2016-04-10,Wan Chai,Noodles/Rice Noodles,$101-200,201601
101 Taiwanese Cuisine,114.16966,Hong Kong Style,22.32177,"G/F, 208 SAI YEUNG CHOI STREET SOUTH, MONG KOK, KOWLOON",62,,RL,,2016-09-07,Tsing Yi,Taiwan,$51-100,201601
101 肉燥飯專門店,113.97449,Hong Kong Style,22.39785,"SHOP B, G/F, MAI KEI BUILDING, 146 HO PONG STREET, TUEN MUN, NEW TERRITORIES",93,,RL,,2016-03-17,Tsing Yi,Taiwan,$51-100,201601
101肉燥飯專門店,114.17093,Hong Kong Style,22.31565,"2/F, 2W SAI YEUNG CHOI STREET SOUTH, MONG KOK, KOWLOON",62,,RL,,2016-02-09,Tsing Yi,Taiwan,$51-100,201601
101肉燥飯專門店,114.17409,Hong Kong Style,22.29966,"G/F, 10A HAU FOOK STREET, TSIM SHA TSUI, KOWLOON",61,,RL,,2016-06-17,Tsing Yi,Taiwan,$51-100,201601
119 PLUS,114.15354,Western,22.28531,"SHOP NO. 201, 2/F., LOW BLOCK, GRAND MILLENNIUM PLAZA, 181 QUEEN'S ROAD CENTRAL, SHEUNG WAN, HONG KONG",18,Western,RL,,2016-05-30,Yuen Long,,$201-400,201601
121 BC,114.1528,,22.28263,"G/F., 42-44 PEEL STREET, CENTRAL, HONG KONG",18,,RL,,2016-08-09,,,,201601
121AD,114.1528,Hong Kong Style,22.28263,"SHOP D, UG/F, FELICITY BUILDING, 54-54A HOLLYWOOD ROAD, 56-56A HOLLYWOOD ROAD, 58 HOLLYWOOD ROAD, 38-44 PEEL STREET, HONG KONG",18,Western,RR,,2016-11-29,Jordan,Western,$51-100,201601
128 特式小食店,114.13807,Hong Kong Style,22.33708,"SHOP NO. 28A, PODIUM FLOOR, MEI FOO SUN CHUEN, 15 BROADWAY STREET, SHAM SHUI PO, KOWLOON",63,,RR,,2016-09-16,Mei Foo,,Below $50,201601
133 LOUNGE,114.16862,Western,22.44812,"G/F, 133 KWONG FUK ROAD, TAI PO, NEW TERRITORIES",95,Western,RR,,2016-06-30,Tai Po,,$101-200,201601
138吧,114.16957,Hong Kong Style,22.31563,"1/F, MAX COMMERCIAL BUILDING, NO. 138 PORTLAND STREET, MONG KOK, KOWLOON",62,,RR,,2016-03-26,Mong Kok,Wine,Below $50,201601
13E,114.1827,Western,22.28071,"13/F, EVERNEW HOUSE, 485 LOCKHART ROAD, WAN CHAI, HONG KONG",12,Western,RR,,2016-05-29,Cheung Sha Wan,Coffee Shop,$51-100,201601
1453 Ottoman Mediterranean Cuisine,114.17085,Western,22.3171,"G/F, 19 TUNG CHOI STREET, MONG KOK, KOWLOON",62,,RL,,2017-01-14,Mong Kok,Turkish,$101-200,201601
1520 Restaurant,114.18608,Western,22.27989,"3/F., 22-24 YEE WO STREET, CAUSEWAY BAY, HONG KONG",12,,RL,,2017-01-29,Fo Tan,Organic Food,$51-100,201601
16 Shell,114.19216,Japanese,22.28701,"SHOP B, G/F., PO WING BUILDING, 6-16 SHELL STREET, NORTH POINT, HONG KONG",11,Japanese,RL,,2016-07-09,Tin Hau,Ramen,$101-200,201601
168,114.17784,Hong Kong Style,22.37648,"SHOP B, G/F, ON FU MANSION, 32 CHIK CHUEN STREET, TAI WAI, SHA TIN, NEW TERRITORIES",97,,RR,,2016-09-17,Tai Wai,Skewer,$51-100,201601
168 FUTURE,114.02873,Western,22.46091,"G/F (PORTION) AND, 1/F., 239 FA YUEN STREET, MONG KOK, KOWLOON",62,Western,RL,,2016-03-15,Causeway Bay,Wine,$201-400,201601
168 TEA RESTAURANT,114.22525,Western,22.41472,"MAJOR PORTION OF SHOP 1, G/F, YAN ON SHOPPING CENTRE, YAN ON ESTATE, MA ON SHAN, SHA TIN, NEW TERRITORIES",97,International,RL,,2016-08-19,Sham Shui Po,Steak House,$201-400,201601
168美食軒,114.19013,Hong Kong Style,22.31742,"SHOP 42B, G/F., TING ON BUILDING, 78-80W TOKWAWAN ROAD, TOKWAWAN, KOWLOON",52,,RR,,2016-01-28,Tsim Sha Tsui,Dai Pai Dong,$51-100,201601
16座車仔麵,114.16983,Hong Kong Style,22.32492,"G/F, 215 FA YUEN STREET, MONG KOK, KOWLOON",62,,RR,,2016-03-15,Prince Edward,Food Stall Noodles,Below $50,201601
18 GRAMS,114.18338,Western,22.28166,"SHOP NO. 1B & 1C, GROUND FLOOR, HOI TO COURT, NO. 15 CANNON STREET, HONG KONG",12,"Western, All Day Breakfast",RR,,2017-01-18,Causeway Bay,All Day Breakfast,$51-100,201601
18 Grams,114.12649,Western,22.26913,"UNIT F, G/F. & UNIT F, G, I, 1/F., MAN HEE MANSION, 2-12A JOHNSTON ROAD, WAN CHAI, HONG KONG",12,"Western, All Day Breakfast",RL,,2016-08-26,Causeway Bay,All Day Breakfast,$51-100,201601
18 Grams,114.14229,Western,22.50114,"SHOP NO. 2, G/F., SKYLINE COMMERCIAL CENTRE, 71-77 WING LOK STREET, SHEUNG WAN, HONG KONG",18,"Western, All Day Breakfast",RR,,2016-02-10,Causeway Bay,All Day Breakfast,$51-100,201601
18 Grams,114.16849,Western,22.31883,"SHOP NO. 01A, LEVEL 12, LANGHAM PLACE, 8 ARGYLE STREET, MONG KOK, KOWLOON",62,"Western, All Day Breakfast",RR,,2016-03-24,Causeway Bay,All Day Breakfast,$51-100,201601
18 Grams,114.17311,Western,22.31606,"SHOP 5 ON G/F, TSUI YUEN MANSION, 83-87 DUNDAS STREET &, 2-20 KWONG WA STREET, KOWLOON",62,"Western, All Day Breakfast",RR,,2016-08-11,Causeway Bay,All Day Breakfast,$51-100,201601
18 Grams,114.27266,Western,22.38231,"SHOP NO. 16, G/F, SAI KUNG BUILDING, 42-56 FUK MAN ROAD, SAI KUNG, NEW TERRITORIES",98,"Western, All Day Breakfast",RR,,2016-06-11,Causeway Bay,All Day Breakfast,$51-100,201601
1981創作藝術餐廳,113.98046,,22.38595,"SHOP NO. 29, G/F, RAINBOW GARDEN, 351 CASTLE PEAK ROAD, TUEN MUN, NEW TERRITORIES",93,,RL,#G#H,2016-12-08,,,,201601
1L CAFFE',114.1529,,22.28377,"G/F., 50 GAGE STREET, SHEUNG WAN, HONG KONG",18,,RL,,2016-09-14,,,,201601
2 + 2 Cafe,114.18854,Hong Kong Style,22.3796,"3/F COFFEE SHOP (MAJOR PORTION), ROYAL PARK HOTEL, STTL 183, 8 PAK HOK TING STREET, SHA TIN, NEW TERRITORIES",97,Tea Restaurant,RL,#F#G#H,2016-06-30,Sha Tin,Tea Restaurant,$51-100,201601
2 NE 1,114.17668,Mainland China,22.29996,"SHOP 8-10, BASEMENT 1, ENERGY PLAZA, 92 GRANVILLE ROAD, TSIM SHA TSUI, KOWLOON",61,Stir-Fry,RR,#B,2016-08-01,Aberdeen,Stir-Fry,$101-200,201601
2015 HONG KONG WINE & DINE FESTIVAL,114.15522,Western,22.28402,"TASTING ROOM AT NEW CENTRAL HARBOURFRONT, LUNG WO ROAD, CENTRAL, HONG KONG",18,International,RL,,2016-04-21,Tsim Sha Tsui,Wine,$101-200,201601
2018煮場,114.11649,Mainland China,22.36899,"G/F, 114 CHUNG ON STREET, TSUEN WAN, NEW TERRITORIES",92,Guangdong,RL,,2016-04-28,Sha Tin,,$51-100,201601
208,114.17619,Western,22.27732,"SHOP A ON G/F & PORTION OF SHOP A & SHOP B ON 1/F., TAI PING MANSION, NOS. 208-214 HOLLYWOOD ROAD & NOS. 21-27 TAI PING SHAN STREET, HONG KONG",18,,RL,,2016-11-24,Sheung Wan,,$201-400,201601
22 North,114.01691,Western,22.29652,"SHOP G08B, G/F., BLOCK A, DB PLAZA, DISCOVERY BAY, LANTAU, HONG KONG",17,International,RL,#F,2016-08-22,North Point,Buffet,$201-400,201601
22 Ships,114.17109,Western,22.27622,"SHOP NO. 6, G/F., COMMERCIAL PORTION OF J RESIDENCE, 60 JOHNSTON ROAD, WAN CHAI, HONG KONG",12,,RL,#F,2016-06-02,Central,,$401-800,201601
238 RESTAURANT,114.1472,,22.28586,"G/F, 238 HOLLYWOOD ROAD, CENTRAL, HONG KONG",18,,RL,#F,2016-05-10,,,,201601
25 FOOD & DESSERT CUISINE,114.21141,Hong Kong Style,22.28814,"SHOP D1, G/F, 18 HOI TAI STREET, QUARRY BAY, HONG KONG",11,,RL,,2016-05-06,Tsim Sha Tsui,Dessert,Below $50,201601
277 DESSERTS TAVERN,114.16999,Hong Kong Style,22.32583,"G/F, 244 FA YUEN STREET, MONG KOK, KOWLOON",62,,RL,,2016-04-16,Wan Chai,Dessert,Below $50,201601
28.美食軒,114.13118,Mainland China,22.28477,"FLAT F, G/F, 28 SANDS STREET, KENNEDY TOWN, WESTERN, HONG KONG",18,Guangdong,RL,#F#G#H,2016-03-12,Mong Kok,Sichuan,$201-400,201601
298 NIKUYA ROOM,114.1549,Japanese,22.28296,"2/F., PEARL ORIENTAL HOUSE, NO. 60 STANLEY STREET, HONG KONG",18,Japanese,RL,,2016-11-24,Central,Roast Meat,$401-800,201601
298 Nikuya Kitchen,114.17502,Japanese,22.29918,"SHOP C, 3/F, CHINA INSURANCE BUILDING, 48 CAMERON ROAD, TSIM SHA TSUI, KOWLOON",61,Japanese,RL,,2016-03-20,Central,Roast Meat,$401-800,201601
298茶餐廳,114.17746,Hong Kong Style,22.2778,"B/M & G/F (PTN), KWONG SENG HONG BUILDING, 298 HENNESSY ROAD, WAN CHAI, HONG KONG",12,Tea Restaurant,RL,,2016-07-25,Tsim Sha Tsui,Tea Restaurant,$51-100,201601
328 茶餐廳,114.17772,Hong Kong Style,22.36628,"SHOP NO 217, G/F, DD 189, LOT 1631, TIN SAM VILLAGE, TAI WAI, SHA TIN, NEW TERRITORIES",97,,RL,,2016-05-31,Tai Wai,Skewer,Below $50,201601
328烤魚雞煲,114.18863,Mainland China,22.3182,"G/F & C/L, 28A PAK TAI STREET, TOKWAWAN, KOWLOON CITY, KOWLOON",52,Noodles/Rice Noodles,RL,,2016-12-17,Tsuen Wan,Noodles/Rice Noodles,Below $50,201601
33,114.18698,Japanese,22.27749,"G/F., 33 HAVEN STREET, CAUSEWAY BAY, HONG KONG",12,"Japanese, Bakery",RL,,2016-10-26,Causeway Bay,Bakery,Below $50,201601
338 Bar,114.17906,Western,22.37698,"SHOP C, G/F, LIN FUNG HOUSE, 82-86 CHIK CHUEN STREET, TAI WAI, SHA TIN, NEW TERRITORIES",97,International,RR,,2016-10-31,Tai Wai,Wine,$101-200,201601
39 Vietnam Home,114.17055,,22.31155,"SHOP 3, G/F, ARTS MANSION, 4-6 MAN MING LANE AND 46-58 ARTHUR STREET, YAU MA TEI, KOWLOON",61,,RR,,2016-06-01,,,,201601
3D,114.1725,Western,22.30285,"11/F, HON KWOK JORDAN CENTRE, 7 HILLWOOD ROAD, KOWLOON",61,Western,RR,#B,2016-12-23,Lai Chi Kok,Western,$101-200,201601
3RD SPACE,114.14752,Western,22.28436,"SHOP A, G/F., TAI HING BUILDING,  22-34 PO HING FONG, SHEUNG WAN, HONG KONG",18,"Western, International",RR,,2016-05-12,Sheung Wan,International,$101-200,201601
3T BAR,114.17894,Western,22.27454,"MINOR PORTION, G/F., 387-397 QUEEN'S ROAD EAST, HONG KONG",12,Western,RR,,2016-07-08,Wan Chai,Wine,$101-200,201601
3Z,114.15636,Japanese,22.33821,"G/F (PORTION) & BASEMENT, CHINACHEM 333 PLAZA, 333 CASTLE PEAK ROAD, SHAM SHUI PO, KOWLOON",63,Japanese,RR,,2016-02-06,Tsim Sha Tsui,Sushi/Sashimi,$401-800,201601
41B,114.19757,Taiwan,22.33473,"G/F, 7 HONG KEUNG STREET, SAN PO KONG, KOWLOON",53,,RL,,2016-01-25,Yuen Long,Dessert,Below $50,201601
42ND Davis,114.12667,Western,22.2814,"SHOP 5, G/F., SINCERE WESTERN HOUSE, NO. 42 DAVIS STREET, KENNEDY TOWN, HONG KONG",18,,RL,,2016-06-10,Western District,,$201-400,201601
5 Senses Korean BBQ Restaurant,114.20378,Hong Kong Style,22.29109,"1/F., ETERNAL BUILDING, NO. 112-114 TSAT TSZ MUI ROAD, NORTH POINT, HONG KONG",11,Tea Restaurant,RL,,2016-08-14,Tai Po,Tea Restaurant,Below $50,201601
5泰,114.19097,South-east Asia,22.31707,"SHOP NO. 2, G/F, ON HONG BUILDING, NOS. 49, 51, 53, 57, 59 AND 61 MEI KING STREET, KOWLOON",52,"Thai, Seafood",RL,,2016-10-21,Kowloon City,Seafood,$101-200,201601
66 HOT POT,114.17888,,22.31551,"SHOP NO. 7, G/F & M/F, NGAI HING MANSION, 74-76 HAK PO STREET, 2-24 PAK PO STREET & 5 YIM PO FONG STREET, MONG KOK, KOWLOON",62,,RL,,2016-02-02,,,,201601
68 Pub,114.1792,Western,22.37446,"G/F, 1, KAM FAI BLDG, CHIK SAU LANE, SHA TIN, NEW TERRITORIES",97,International,RR,,2016-06-30,Mong Kok,Wine,$101-200,201601
68茶餐廳,114.17799,Hong Kong Style,22.37555,"SHOP NO 1, G/F, RICH COURT, 31 CHIK FU STREET, TAI WAI, SHA TIN, NEW TERRITORIES",97,,RL,,2016-01-26,North Point,Sichuan,$201-400,201601
6V Pub,114.16845,Western,22.44868,"G/F, 12 TUNG SAU SQUARE, TAI PO, NEW TERRITORIES",95,International,RR,,2016-06-30,Prince Edward,Wine,$101-200,201601
6º,114.15492,Taiwan,22.28091,"SHOP B & C ON G/F AND ROOMS 102 & 103 ON LEVEL 1, YU YUET LAI BUILDING, 43-55 WYNDHAM STREET, CENTRAL, HONG KONG",18,,RR,,2016-12-16,Mong Kok,Hot Pot,$201-400,201601
7 DAYS,114.16737,Hong Kong Style,22.44868,"G/F, 83 KWONG FUK ROAD, TAI PO, NEW TERRITORIES",95,,RL,,2016-12-15,Quarry Bay,Coffee Shop,Below $50,201601
7-ELEVEN FOOD STORE,114.17558,,22.28107,"PORTION C OF SHOP NO. G6, G/F., HARBOUR CENTRE, 25 HARBOUR ROAD, WAN CHAI, HONG KONG",12,,RR,,2016-12-13,,,,201601
759 Skyland,114.16892,Hong Kong Style,22.44991,"SHOP NOS. 287-295, LEVEL 2, ZONE B, TAI PO MEGA MALL, TAI PO, NEW TERRITORIES",95,,RR,,2016-06-08,Kwun Tong,Wonton/Dumpling,$51-100,201601
759茶餐廳,114.13271,Hong Kong Style,22.36754,"PORTION B2 OF SHOP B, G/F, KWONG FAI BUILDING, 7 & 9 KWONG FAI CIRCUIT, KWAI CHUNG, NEW TERRITORIES",91,,RL,,2016-03-09,To Kwa Wan,Dessert,Below $50,201601
759車仔麵,114.20377,,22.32388,"SHOP 2, G/F, KOWLOON BAY INTERNATIONAL TRADE & EXHIBITION CENTRE, NO. 1 TRADEMART DRIVE, KOWLOON BAY, KOWLOON",51,,RR,,2016-07-02,,,,201601
759雲吞麵,114.11519,Hong Kong Style,22.371,"SHOP B1, G/F, BLOCK B, WAH SING BUILDING, 80-84 HAU TEI SQUARE, TSUEN WAN, NEW TERRITORIES",92,Noodles/Rice Noodles,RL,,2016-05-12,Tseung Kwan O,Noodles/Rice Noodles,Below $50,201601
759雲吞麵,114.15657,Hong Kong Style,22.33484,"SHOP NO. 1, G/F, ANCILLARY FACILITIES BLOCK, CHEUNG SHA WAN ESTATE, KOWLOON",63,Noodles/Rice Noodles,RL,,2016-04-14,Tseung Kwan O,Noodles/Rice Noodles,Below $50,201601
78 HOLMES CAFE,114.16875,Western,22.27606,"SHOP C, G/F., MOONFUL COURT, 17A MOON STREET, WAN CHAI, HONG KONG",12,International,RL,,2016-08-24,Tsim Sha Tsui,Wine,$101-200,201601
8 Blessings,114.21422,Western,22.32721,"SHOP 123, G/F, TBG MALL, TAK BO GARDEN, 3 NGAU TAU KOK ROAD, KOWLOON",51,"International, Seafood",RR,,2016-12-11,Tsim Sha Tsui,Seafood,$201-400,201601
8 Days Restaurant,114.16638,Western,22.32728,"SHOP E, G/F, HUNG WAN BUILDING, 31-41 CHEUNG SHA WAN ROAD, KOWLOON",63,Western,RL,,2016-11-01,Central,Certified Halal Food,$101-200,201601
8 Fine Irishmen Pub,114.17958,Western,22.33013,"G/F, 8 OBSERVATORY COURT, KOWLOON",61,Western,RR,,2016-05-09,Tsim Sha Tsui,Wine,$101-200,201601
8 HAPPINESS,114.19259,Hong Kong Style,22.34302,"SHOP G4A, G/F, WONG TAI SIN PLAZA, WONG TAI SIN, KOWLOON",53,Stir-Fry,RL,,2016-02-18,Happy Valley,Stir-Fry,$101-200,201601
8 OWL,114.15235,Japanese,22.28455,"G/F., NOS. 2 AND 8 ON WO LANE, CENTRAL, HONG KONG",18,"Japanese, Western",RL,,2016-08-07,Mong Kok,Western,$101-200,201601
8 OZ,114.15403,Hong Kong Style,22.24361,"SHOP B, G/F., NO. 132 MAIN STREET AP LEI CHAU, HONG KONG",15,,RL,,2016-08-03,San Po Kong,Food Stall Noodles,Below $50,201601
81 BAN,114.16398,Western,22.28004,"SHOP D2-D3, UG/F., FAR EAST FINANCE CENTRE, 16 HARCOURT ROAD, ADMIRALTY, HONG KONG",18,International,RL,,2016-06-09,Tsim Sha Tsui,Wine,$201-400,201601
81 BAN,114.16849,Western,22.31883,"SHOP 12, LEVEL 4A, LANGHAM PLACE, 8 ARGYLE STREET, MONG KOK, KOWLOON",62,International,RL,,2016-10-19,Tsim Sha Tsui,Wine,$201-400,201601
83 Fast Food,114.19131,Western,22.32852,"G/F, 74 TAK KU LING ROAD, KOWLOON CITY, KOWLOON",52,Western,RL,,2016-05-26,Tai Po,Pizza,$51-100,201601
85 South,114.15308,Western,22.28429,"SHOP B ON G/F, 6-10 KAU U FONG, CENTRAL, HONG KONG",18,Western,RL,,2016-11-09,Kwun Tong,Wine,$101-200,201601
85C,114.25095,Taiwan,22.26077,"PORTION A OF SHOP NO. G01, GROUND FLOOR, SIU SAI WAN PLAZA (FORMING PART OF COMMERCIAL / CAR PARK BLOCKS), SIU SAI WAN ESTATE, SIU SAI WAN ROAD, CHAI WAN, HONG KONG",11,Bakery,RR,,2016-08-05,Yau Tong,Bakery,Below $50,201601
85℃,114.14673,Taiwan,22.24382,"PORTION A OF UNIT NO. G07 & G08, G/F., MARINA SQUARE, WEST COMMERCIAL BLOCK, SOUTH HORIZONS, APLEICHAU, HONG KONG",15,Bakery,RR,,2016-01-14,To Kwa Wan,Bakery,Below $50,201601
85℃,114.16844,Taiwan,22.32215,"PORTION A OF SHOP E, GROUND FLOOR, CARPRIO MANSION, NO. 1 LAI CHI KOK ROAD, KOWLOON",62,Bakery,RR,,2016-11-29,To Kwa Wan,Bakery,Below $50,201601
85℃,114.18964,Taiwan,22.32039,"PORTION A OF SHOPS B017 + B018, G/F, CHING LONG SHOPPING CENTRE, KOWLOON CITY, KOWLOON",52,Bakery,RR,,2016-01-18,To Kwa Wan,Bakery,Below $50,201601
85℃,114.23202,Taiwan,22.31957,"PORTION A OF SHOP NO. 18, GROUND FLOOR,SAU MAU PING SHOPPING CENTRE, SAU MAU PING ESTATE, SAU MING ROAD, SAU MAU PING, KOWLOON",51,Bakery,RR,,2016-02-04,To Kwa Wan,Bakery,Below $50,201601
85℃,114.29338,Taiwan,22.27823,"PORTION A OF SHOP NO. 111 ON FIRST FLOOR, DOMAIN, YAU TONG, KOWLOON",51,Bakery,RR,,2016-05-14,To Kwa Wan,Bakery,Below $50,201601
88 Bar Limited,114.17858,Hong Kong Style,22.27765,"13/F, 197-199 WAN CHAI ROAD, WAN CHAI, HONG KONG",12,,RR,#B,2017-02-06,Fo Tan,Online Shop/ Food Distributor,Below $50,201601
89美食坊,114.11858,Hong Kong Style,22.37166,"SHOP NO. 2, G/F, 171 CASTLE PEAK ROAD, TSUEN WAN, NEW TERRITORIES",92,Noodles/Rice Noodles,RR,,2016-01-14,Sham Shui Po,Noodles/Rice Noodles,Below $50,201601
8度石鍋&甜品,114.19129,Japanese,22.27877,"G/F., 58 TUNG LO WAN ROAD, CAUSEWAY BAY, HONG KONG",12,Japanese,RL,,2016-07-15,Causeway Bay,Coffee Shop,$101-200,201601
8號餐廳,114.17481,Western,22.29909,"G/F, CHINACHEM CAMERON CENTRE, 42 CAMERON ROAD, TSIM SHA TSUI, KOWLOON",61,Western,RL,,2017-01-18,Tai Po,,$51-100,201601
911餐廳,113.93557,,22.2841,"G/F., 101 MA WAN CHUNG, TUNG CHUNG, LANTAU ISLAND, NEW TERRITORIES",17,,RR,,2016-09-23,,,,201601
968菊池,114.18951,Mainland China,22.31539,"SHOP NO. 6, G/F, BLOCK C, I-FENG MANSION, 237-239 TO KWA WAN ROAD, TO KWA WAN, KOWLOON",52,Noodles/Rice Noodles,RL,,2016-02-11,Wan Chai,Noodles/Rice Noodles,$51-100,201601
99茶寮,114.21155,Japanese,22.34073,"SHOP NO.3, G/F, SHOPPING CENTRE, KINGSFORD TERRACE, 8 KING TUNG STREET, KOWLOON",53,Japanese,RL,,2016-04-22,Central,,$51-100,201601
A E,114.17565,Western,22.277,"2/F., NOS. 178-186 JOHNSTON ROAD, WAN CHAI, HONG KONG",12,,RR,#B,2016-10-02,Western District,French,$201-400,201601
A FIFTH,114.17556,Mainland China,22.29922,"5/F, KATHERINE HOUSE, 53-55 CHATHAM ROAD SOUTH, TSIM SHA TSUI, KOWLOON",61,"Guangdong, Seafood",RR,,2016-06-24,Yau Ma Tei,Seafood,$201-400,201601
A LITTLE BIT,114.16163,Western,22.33456,"SHOP NO. 5, G/F, KIN MAN BUILDING, 66 CASTLE PEAK ROAD, CHEUNG SHA WAN, KOWLOON",63,Western,RL,,2016-05-12,Kwun Tong,Cake Shop,$201-400,201601
A LITTLE BIT RESTAURANT,114.16273,Hong Kong Style,22.45294,"SHOP 11A, G/F, BLOCK C, GREENERY PLAZA, 3 CHUI YI STREET, TAI PO, NEW TERRITORIES",95,,RL,,2016-09-23,Tai Wai,Dessert,Below $50,201601
A La Bakery,114.15533,Western,22.28554,"G/F(PORTION 'B'), TWO CHINACHEM PLAZA, 68 CONNAUGHT ROAD CENTRAL, HONG KONG",18,"Western, Bakery",RR,,2016-12-07,Shau Kei Wan,Bakery,Below $50,201601
A One Pub,114.02824,Western,22.44571,"G/F, 32 FOOK TAK STREET, YUEN LONG, NEW TERRITORIES",94,Western,RR,,2016-04-13,Causeway Bay,Wine,$101-200,201601
A PLUS KITCHEN,114.1334,Hong Kong Style,22.28625,"G/F, SHOP A-B, 576-582 QUEEN'S ROAD WEST, WESTERN, HONG KONG",18,Tea Restaurant,RL,,2016-10-21,Tsim Sha Tsui,Tea Restaurant,$51-100,201601
A Plus,114.16898,Western,22.32609,"G/F, & COCKLOFT, 225 TUNG CHOI ST., KOWLOON",62,Western,RR,,2016-05-16,Wan Chai,Wine,$51-100,201601
A Plus Kitchen,114.17428,Hong Kong Style,22.29868,"FLAT B, G/F, WINFIELD COMMERCIAL BUILDING, 6-8 PRAT AVENUE, TSIM SHA TSUI, KOWLOON",61,Tea Restaurant,RL,,2016-06-07,Tsim Sha Tsui,Tea Restaurant,$51-100,201601
A Plus Restaurant,114.17858,Western,22.27765,"3/F., TIFFAN TOWER, 197-199 WANCHAI ROAD, WANCHAI, HONG KONG",12,Western,RR,,2016-09-09,Wan Chai,Wine,$51-100,201601
A RESTAURANT,114.13933,Hong Kong Style,22.28721,"SHOP NO. 1 & 2, G/F., LIANG GA BUILDING, 296-302 DES VOEUX ROAD WEST & 4-10 LAI ON LANE, SAI WAN, HONG KONG",18,,RL,,2016-12-14,Kowloon City,Hot Pot,$201-400,201601
A RI SU KOREAN RESTAURANT,114.17455,Korean,22.29958,"3/F, H8, 8 HAU FOOK STREET, TSIM SHA TSUI, KOWLOON",61,,RL,,2016-10-13,Wan Chai,Korean BBQ,$101-200,201601
A RI SU KOREAN RESTAURANT COMPANY LIMITED,114.21171,Hong Kong Style,22.28614,"G/F., 56 PAN HOI STREET, QUARRY BAY, HONG KONG",11,Tea Restaurant,RL,,2016-06-25,Cheung Sha Wan,Tea Restaurant,$51-100,201601
A ROLHA,114.14005,Western,22.33863,"G/F, MEI FOO SUN CHUEN, 17A NASSAU STREET, SHAM SHUI PO, KOWLOON",63,International,RR,#B,2016-05-13,Mei Foo,Wine,$51-100,201601
A Side & B Side,114.14846,Japanese,22.28479,"G/F., 53 SAI STREET, SHEUNG WAN, HONG KONG",18,Japanese,RR,,2016-06-28,Kowloon City,Sushi/Sashimi,$101-200,201601
A T Restaurant & Bar,114.17533,Hong Kong Style,22.2982,"PORTION OF SHOP 1 & SHOP 2, G/F, UNION MANSION, 33-35 CHATHAM ROAD SOUTH, TSIM SHA TSUI, KOWLOON",61,,RR,,2016-06-23,Jordan,,$51-100,201601
A la Maison,114.19223,Western,22.28652,"SHOP F & G, G/F, JUPITER TERRACE, 18 JUPITER STREET, NORTH POINT, HONG KONG",11,,RL,#F#G#H,2016-08-11,Wan Chai,French,$201-400,201601
A • T Field Café,114.17113,Japanese,22.31568,"NO. 1301-1302, 13/F, DUNDAS SQUARE, 43H DUNDAS STREET, MONG KOK, KOWLOON",62,"Japanese, Bakery",RR,,2016-10-23,Mong Kok,Bakery,$51-100,201601
A++ DELI,114.19687,Western,22.33353,"SHOP NO. LG 9-10, LOWER GROUND FLOOR, MIKIKI OF THE LATITUDE, 638 PRINCE EDWARD ROAD EAST, SAN PO KONG, KOWLOON",53,,RL,,2016-05-13,Tsim Sha Tsui,Wine,Above $801,201601
A-1 BAKERY & CAFE,114.23875,Western,22.29841,"SHOP NO. 134 (MAJOR PORTION), 1/F, LEI YUE MUN PLAZA, 80 LEI YUE MUN ROAD, YAU TONG, KOWLOON",51,"Western, Bakery",RR,,2016-07-03,Tseung Kwan O,Bakery,Below $50,201601
A-1 Bakery,114.11559,Western,22.37338,"SHOP F & B-1 (MAJOR PORTION), G/F, KOLOUR‧TSUEN WAN II, TWTL 301, TSUEN WAN, NEW TERRITORIES",92,"Western, Bakery",RL,,2016-04-20,Tseung Kwan O,Bakery,Below $50,201601
A-1 Bakery,114.24395,Western,22.42847,"SHOP NO. G10 (MAJOR PORTION), G/F, LAKE SILVER, 599 SAI SHA ROAD, WU KAI SHA, SHA TIN, NEW TERRITORIES",97,"Western, Bakery",RR,,2016-04-11,Tseung Kwan O,Bakery,Below $50,201601
A-1 Bakery & Cafe,114.12672,Western,22.35747,"SHOP NO. 311, LEVEL 3, METROPLAZA, 223 HING FONG ROAD, KWAI CHUNG, NEW TERRITORIES",91,"Western, Bakery",RR,,2016-10-24,Tseung Kwan O,Bakery,Below $50,201601
A-1 Bakery & Cafe,114.14315,Western,22.28637,"UNIT 1 (MAJOR PORTION), GROUND FLOOR, ISLAND CREST, 8 FIRST STREET, HONG KONG",18,"Western, Bakery",RR,,2016-11-27,Tseung Kwan O,Bakery,Below $50,201601
A-1 Bakery & Cafe,114.18813,Western,22.31616,"SHOP 3 (MAJOR PORTION), LOWER G/F, 18 FARM ROAD, KOWLOON CITY, KOWLOON",52,"Western, Bakery",RL,,2016-05-12,Tseung Kwan O,Bakery,Below $50,201601
A-1 Bakery & Café,114.21641,Western,22.3241,"PORTION A OF SHOP G113, G/F, PHASE 1, AMOY PLAZA, 77 NGAU TAU KOK ROAD, KOWLOON",51,"Western, Bakery",RR,,2016-06-24,Tseung Kwan O,Bakery,Below $50,201601
A-1 Bakery & Café,114.25684,Western,22.31188,"SHOP NO. 10 (MAJOR PORTION), G/F, SHEUNG TAK SHOPPING CENTRE, SHEUNG TAK ESTATE, 2 TONG MING STREET, TSEUNG KWAN O, SAI KUNG, NEW TERRITORIES",98,"Western, Bakery",RR,,2016-11-11,Tseung Kwan O,Bakery,Below $50,201601
A-INN CLUB,114.16453,Western,22.44802,"SHOP B & C, G/F, HEUNG YEE KUK BUILDING, 4-6 SHUNG TAK STREET, YAN HING STREET, TAI PO, NEW TERRITORIES",95,International,RR,,2016-02-22,Tai Po,Wine,$201-400,201601
A. KASHMIR CURRY HOUSE ALIBABA,114.16343,Japanese,22.33091,"SHOP 116B, G/F, PEI HO STREET, SHAM SHUI PO, KOWLOON",63,Japanese,RL,,2016-10-30,Tsim Sha Tsui,French,Above $801,201601
A100,114.12709,Hong Kong Style,22.50345,"G/F, 34 SAN FAT STREET, SHEUNG SHUI, NEW TERRITORIES",96,,RL,,2016-07-15,Sheung Shui,Ramen,Below $50,201601
A2 Pub,114.16894,,22.32619,"SHOP B, G/F, TUNG WAI BUILDING, 227-229 TUNG CHOI ST, MONG KOK, KOWLOON",62,,RR,,2017-01-05,,,,201601
ABC粉麵,114.16894,Hong Kong Style,22.30834,"SHOP B, G/F, SAY HAY HOUSE, 10 PAK HOI STREET, YAU MA TEI, KOWLOON",61,Tea Restaurant,RR,,2016-10-17,Sham Shui Po,Tea Restaurant,$51-100,201601
ABERDEEN FISHBALL & NOODLES RESTAURANT,114.16942,Hong Kong Style,22.32293,"G/F, 242-244 SAI YEUNG CHOI STREET SOUTH, MONG KOK, KOWLOON",62,Noodles/Rice Noodles,RL,,2017-01-19,North Point,Noodles/Rice Noodles,Below $50,201601
ABERDEEN FISHBALL & NOODLES RESTAURANT,114.25195,Hong Kong Style,22.35639,"G/F-1/F, HUMPHREY'S BUILDING, 11 HUMPHREY'S AVENUE, TSIM SHA TSUI, KOWLOON",61,Noodles/Rice Noodles,RL,,2017-02-05,North Point,Noodles/Rice Noodles,Below $50,201601
ABERDEEN SEAFOOD SQUARE,114.15593,Mainland China,22.24765,"SHOP NOS. 1 & 2, G/F., KAM HEUNG BUILDING, 128 ABERDEEN MAIN ROAD, ABERDEEN, HONG KONG",15,"Guangdong, Stir-Fry",RL,,2016-07-19,Ap Lei Chau,Stir-Fry,$101-200,201601
ABERDEEN STREET SOCIAL,114.15318,Western,22.28403,"LG/F. AND G/F., JPC BUILDING PMQ, 35 ABERDEEN STREET, CENTRAL, HONG KONG",18,,RL,,2017-01-22,Central,Wine,Above $801,201601
ABURI,114.17723,Japanese,22.27905,"SHOP 5, G/F., TONNOCHY TOWERS, NOS. 250, 252, 256-270 & 274 JAFFE ROAD, NO. 5 TONNOCHY ROAD, NO. 4 STEWART ROAD, HONG KONG",12,Japanese,RL,#A,2016-05-21,Tai Po,Sushi/Sashimi,$101-200,201601
ACCRO COFFEE,114.02243,Western,22.44735,"SHOP 8, G/F & COCKLOFT, FOOK CHEONG BUILDING, 21-27 MA WANG ROAD, YUEN LONG, NEW TERRITORIES",94,Western,RR,,2016-04-28,Yuen Long,Coffee Shop,$51-100,201601
ACHACHA CAFE & BISTRO,114.02674,Hong Kong Style,22.44315,"SHOP K & L, G/F, SHUN FAT HOUSE, 54-56 KAU YUK ROAD, YUEN LONG, NEW TERRITORIES",94,Tea Restaurant,RL,,2016-06-08,Tsuen Wan,Tea Restaurant,$51-100,201601
AEDES BAR,114.19602,Western,22.29094,"GROUND FLOOR & COCKLOFT, NO. 14 YUEN YUEN STREET, HAPPY VALLEY, HONG KONG",12,,RR,,2016-10-22,Happy Valley,Wine,$201-400,201601
AFFLUENT KITCHEN,114.18816,Western,22.27906,"SHOPS 1 AND 2 (BEING PART OF PORTION 1 AND PORTION 2 OF SHOP B) ON GROUND FLOOR, CATHAY MANSION, NOS. 3-17A TUNG LO WAN ROAD, CAUSEWAY BAY, HONG KONG",12,,RL,,2016-05-26,Mid-Levels,,$51-100,201601
AGEHAN JAPANESE RESTAURANT,114.1577,Japanese,22.28424,"SHOP 208-210, THE PODIUM OF EXCHANGE SQUARE, 8 CONNAUGHT PLACE, CENTRAL, HONG KONG",18,Japanese,RL,#G#H,2016-07-02,Central,Yoshoku,$101-200,201601
AGNES B. CAFE L.P.G.,114.17785,Western,22.29772,"SHOP NOS. G64-66, G/F, TSIM SHA TSUI CENTRE, 66 MODY ROAD, KOWLOON",61,,RR,,2017-01-20,Tai Wai,Dessert,$201-400,201601
AGNES B. LE PAIN GRILLE,114.17457,Western,22.3373,"PORTION OF UNIT UG33, UG/F, FESTIVAL WALK, 80 TAT CHEE AVENUE, KOWLOON TONG, KOWLOON",63,,RL,#F,2016-02-10,Tai Koo,Dessert,$51-100,201601
AH FONG WONTON,114.17516,Hong Kong Style,22.30228,"SHOP C, G/F, BLOCK B, AUSTIN MANSION, 15A AUSTIN AVENUE, TSIM SHA TSUI, KOWLOON",61,Tea Restaurant,RR,,2017-01-24,Tsim Sha Tsui,Tea Restaurant,Below $50,201601
AH LUI FOOD SHOP,114.18531,,22.30692,"G/F, 12A BULKELEY STREET, HUNG HOM, KOWLOON",52,,RR,,2016-11-15,,,,201601
AH LUNG PAKISTAN HALAL FOOD,114.17022,Other,22.30619,"G/F, 93A WOOSUNG STREET, KOWLOON",61,Seafood,RL,,2016-02-07,Jordan,Seafood,$51-100,201601
AH TAK KITCHEN,114.18744,Mainland China,22.306,"SHOP NOS. 1A9 & 1A10, G/F, WHAMPOA ESTATE, 101-109 DOCK STREET, HUNGHOM, KOWLOON CITY, KOWLOON",52,"Guangdong, Tea Restaurant",RL,,2016-10-29,Hung Hom,Tea Restaurant,$51-100,201601
AHMAD CURRY HOUSE,114.02173,South-east Asia,22.4464,"SHOP 4, G/F, LOK FU BUILDING, 2/16 FUK TIN PATH, YUEN LONG, NEW TERRITORIES",94,"Thai, Curry",RL,,2016-07-14,Central,Curry,$101-200,201601
AIA,114.17735,Hong Kong Style,22.27383,"G/F., AIA BUILDING, NO. 1 STUBBS ROAD, WAN CHAI, HONG KONG",12,All Day Breakfast,RR,,2016-03-08,North Point,All Day Breakfast,Below $50,201601
AJ's SRILANKAN CUISINE,114.27124,Mainland China,22.37919,"G/F, 14 SAI KUNG HOI PONG STREET, SAI KUNG, NEW TERRITORIES",98,Guangdong,RL,,2016-04-21,Wan Chai,Xinjiang,Below $50,201601
AJI* 1000,114.18621,,22.31116,"SHOP NO. G01A & B, G/F, CHATHAM PLACE, NO. 388 CHATHAM ROAD NORTH, TO KWA WAN, KOWLOON",52,,RL,,2016-04-01,,,,201601
AJISEN RAMEN,114.17069,Japanese,22.31416,"SHOP A, GROUND FLOOR, LUNG MA BUILDING, NO. 550 NATHAN ROAD, KOWLOON",61,Japanese,RL,#G#H,2016-03-27,Yau Ma Tei,Ramen,$51-100,201601
AJISEN RAMEN,114.18656,Japanese,22.28032,"SHOP 305, 3/F., WINDSOR HOUSE, 311 GLOUCESTER ROAD, CAUSEWAY BAY, HONG KONG",12,Japanese,RL,#G#H,2016-05-18,Yau Ma Tei,Ramen,$51-100,201601
AJISEN RAMEN,114.20036,Japanese,22.3486,"SHOP 501 & 502, 5/F, TSZ WAN SHAN SHOPPING CENTRE, NO. 23 YUK WAH STREET, TSZ WAN SHAN, WONG TAI SIN, KOWLOON",53,Japanese,RL,,2016-05-06,Yau Ma Tei,Ramen,$51-100,201601
AJITOMI Japanese Restaurant,114.18202,Japanese,22.27928,"7/F, CIRCLE TOWER, 28 TANG LUNG STREET, CAUSEWAY BAY, WAN CHAI, HONG KONG",12,Japanese,RL,#G#H,2016-03-13,Tsim Sha Tsui,Sushi/Sashimi,$101-200,201601
AKAMARU UDONBURI,114.25765,Japanese,22.32427,"SHOP NOS. 2032-34, LEVEL 2, METRO CITY, PHASE II, TSEUNG KWAN O, SAI KUNG, NEW TERRITORIES",98,Japanese,RL,#G#H,2016-01-18,Tai Koo,Izakaya,$201-400,201601
AKIZUKI,114.21422,Mainland China,22.32721,"SHOP A2, G/F, TBG MALL, TAK BO GARDEN, NO. 3 NGAU TAU KOK ROAD, KOWLOON",51,,RL,#G#H,2016-07-16,Tsim Sha Tsui,Fine Dried Seafood,$401-800,201601
AKU TEPPANYAKI JAPANESE RESTAURANT,114.17785,Japanese,22.29772,"SHOP NOS. G80-85, G/F, TSIM SHA TSUI CENTRE, 66 MODY ROAD, TSIM SHA TSUI EAST, KOWLOON",61,"Japanese, Teppanyaki",RL,#E#F#G#H,2016-08-01,Jordan,Teppanyaki,$401-800,201601
AL DENTE,114.15284,Western,22.2818,"G/F., 16 STAUNTON STREET, CENTRAL, HONG KONG",18,,RL,,2016-11-16,Wan Chai,Pizza,$201-400,201601
AL DENTE,114.17488,Western,22.29884,"PORTION OF G/F, POLLY COMMERCIAL BUILDING, 21-23A PRAT AVENUE, TSIM SHA TSUI, KOWLOON",61,,RL,,2016-08-25,Wan Chai,Pizza,$201-400,201601
AL Dente,114.17488,Western,22.28102,"SHOP NOS. 102-105, 1/F, GREAT EAGLE CENTRE, 23 HARBOUR ROAD, WAN CHAI, HONG KONG",12,,RL,,2017-01-03,Wan Chai,Pizza,$201-400,201601
AL FORNO,114.15152,Western,22.28271,"SHOP 2, UG/F., KING HO BUILDING, 41-49 ABERDEEN STREET, CENTRAL, HONG KONG",18,Western,RL,,2016-05-08,Causeway Bay,Coffee Shop,$101-200,201601
AL MOLO,114.16735,Western,22.29513,"SHOP OT G63, G/F, OCEAN TERMINAL, HARBOUR CITY, TSIM SHA TSUI, KOWLOON",61,Western,RL,#F,2016-11-01,Tsim Sha Tsui,Western,$201-400,201601
AL PASHA,114.17363,Western,22.2976,"SHOP NO. 401 ON LEVEL 4 OF 'K11', 18 HANOI ROAD, TSIM SHA TSUI, KOWLOON",61,,RL,,2016-08-24,Wan Chai,Greek,$201-400,201601
AL PESTO,114.1278,Western,22.28278,"SHOP E, G/F., FULL HARVEST BUILDING, 6-18 HAU WO STREET, KENNEDY TOWN, HONG KONG",18,,RL,,2016-12-04,Western District,Pizza,$101-200,201601
AL' S DINER,114.15517,,22.28102,"SHOP F, G/F., WINNER BUILDING, 27-39 D'AGUILAR STREET, CENTRAL, HONG KONG",18,,RL,,2016-06-30,,,,201601
ALBERTO'S PORTUGUESE CAFE & BAR,114.03469,Hong Kong Style,22.44198,"SHOP 63A, G/F, HO SHUN LEE BUILDING, 9 FUNG YAU STREET SOUTH, YUEN LONG, NEW TERRITORIES",94,,RR,,2016-01-29,Mong Kok,Portuguese,Below $50,201601
ALDOU CAFE,114.02516,Mainland China,22.44121,"SHOP 3, G/F, YEE FUNG GARDEN, 38 MA TIN ROAD, YUEN LONG, NEW TERRITORIES",94,Guangdong,RR,,2016-11-04,Kowloon City,Tea House,$51-100,201601
ALEX'S CAFE,114.19772,Western,22.3979,"SHOP 1 ON G/F., WHOLE OF 1/F, HAND FAIR COURT, 255 CASTLE PEAK ROAD, KOWLOON",63,Western,RL,,2016-07-03,Causeway Bay,Wine,$201-400,201601
ALFIE'S BY KEE,114.15916,Mainland China,22.28122,"PORTION OF M18 & M19, M/F., PRINCE'S BUILDING, 10 CHATER ROAD, CENTRAL, HONG KONG",18,"Guangdong, Chinese BBQ",RL,,2016-09-21,Sheung Shui,Chinese BBQ,$51-100,201601
ALLOY KARAOKE LOUNGE,114.1742,Western,22.29796,"UNIT 1 TO 4, 3/F, HART AVENUE PLAZA, 5-9A HART AVENUE, TSIM SHA TSUI, KOWLOON",61,Western,RR,#B,2016-09-12,Causeway Bay,Wine,$201-400,201601
ALMA,114.18834,Western,22.31705,"SHOP OT 310, LEVEL 3, OCEAN TERMINALHARBOUR CITY,  , KOWLOON",61,International,RL,,2016-05-22,Wan Chai,Wine,$101-200,201601
ALOHA DESSERT HOUSE,114.16834,Japanese,22.44778,"SHOP 6, G/F & COCKLOFT, 126 KWONG FUK ROAD , TAI PO, NEW TERRITORIES",95,Japanese,RR,,2016-11-24,Wan Chai,Sushi/Sashimi,$401-800,201601
ALOY MAK MAK,114.03196,Western,22.44485,"SHOP 4-5 & PORTION OF 6-7, G/F & COCKLOFT, PEARL HOUSE, 1-11 ON LOK ROAD, YUEN LONG, NEW TERRITORIES",94,Western,RL,#G,2016-09-09,Cheung Sha Wan,Wine,$101-200,201601
ALTO 88,114.18684,Western,22.27914,"PORT.OF 31/F, REGAL H.K HOTEL, 88 YEE WO ST., CAUSEWAY BAY, WAN CHAI, HONG KONG",12,,RL,#D#F,2017-01-27,Causeway Bay,Hotel Restaurant,$201-400,201601
AM KITCHEN,114.14318,Western,22.49915,"SHOP B, G/F, KIN FUNG BUILDING, 56 WO FUNG STREET, LUEN WO HUI, FANLING, NEW TERRITORIES",96,,RL,,2016-05-07,Causeway Bay,Fine Dining,$401-800,201601
AMANTE,113.94225,Western,22.28868,"SHOP NO. 1, G/F., FU TUNG PLAZA, FU TUNG ESTATE, 6 FU TUNG STREET, TUNG CHUNG, NEW TERRITORIES",17,Western,RL,#F,2016-07-20,Tsim Sha Tsui,Theme Restaurant,$51-100,201601
AMAZAKE,114.15649,,22.28052,"SHOP A, UG/F., ON HING BUILDING, NO. 1 ON HING TERRACE, CENTRAL, HONG KONG",18,,RL,#G#H,2016-06-06,,,,201601
AMAZING,114.17174,South-east Asia,22.31383,"PORTION A, G/F, THE CITYVIEW, 23 WATERLOO ROAD, KOWLOON",61,Thai,RL,,2016-04-12,Yau Ma Tei,Food Wise Eateries,$101-200,201601
AMAZING PLACE,114.05946,South-east Asia,22.3698,"G/F, 86 SHAM TSENG TSUEN, AND THE OUTSIDE SEATING AREA AT SHOP FRONT, SHAM TSENG, TSUEN WAN, NEW TERRITORIES",92,Thai,RL,#A#G#H,2016-11-24,Yau Ma Tei,Food Wise Eateries,$101-200,201601
AMAZING RESTAURANT,114.16698,South-east Asia,22.32628,"G/F, NO. 34 BOUNDARY STREET, KOWLOON",62,Thai,RL,,2016-07-13,Yau Ma Tei,Food Wise Eateries,$101-200,201601
AMBER,114.15768,Western,22.28095,"7/F, THE LANDMARK MANDARIN ORIENTAL, THE LANDMARK, 15 QUEEN'S ROAD CENTRAL, CENTRAL, HONG KONG",18,,RL,#E#F#G#H,2016-01-13,Central,Wine,Above $801,201601
AMERICAN RESTAURANT,114.25195,Western,22.35639,"20-22(G/F), 20-26(1/F), LOCKHART ROAD, WAN CHAI, HONG KONG",12,Western,RL,,2016-06-17,Tsim Sha Tsui,American,$201-400,201601
AMICO 1890,114.17227,Western,22.31768,"G/F, HING YIP HOUSE, NO. 24 SAI YEE STREET, MONG KOK, KOWLOON",62,Western,RR,,2016-07-26,Mong Kok,Pizza,$101-200,201601
AMITABHA VEGETARIAN RESTAURANT,114.18558,,22.30816,"G/F, 41-43 STATION LANE, HUNG HOM, KOWLOON",52,,RL,,2016-08-09,,,,201601
AMMO,114.16528,Western,22.27584,"LOWER LEVEL, ASIA SOCIETY HONG KONG CENTER, 9 JUSTICE DRIVE, ADMIRALTY, HONG KONG",18,,RL,,2016-10-28,Admiralty,Wine,$401-800,201601
AMORE,114.1712,Western,22.27692,"SHOP D, G/F., 8 THOMSON ROAD, WAN CHAI, HONG KONG",12,,RL,,2016-08-24,Western District,,$201-400,201601
AMOUR CAFE,114.17087,Western,22.30578,"G/F, 1L NANKING STREET, KOWLOON",61,Western,RR,,2016-07-29,Jordan,Coffee Shop,$51-100,201601
AMPHAWA THAI RESTAURANT,114.17004,South-east Asia,22.30553,"GROUND FLOOR, NO. 102 WOOSUNG STREET, JORDAN, KOWLOON",61,"Thai, Seafood",RL,,2016-10-17,Yau Ma Tei,Seafood,$101-200,201601
AMUSE,114.14631,Western,22.33629,"G/F, 909 CHEUNG SHA WAN ROAD, LAI CHI KOK, KOWLOON",63,Western,RL,#F,2016-12-12,Jordan,Wine,$101-200,201601
AMUSE,114.17622,Western,22.30223,"G/F, AUSTIN COMMERCIAL CENTRE, 4-4A AUSTIN AVENUE, TSIM SHA TSUI, KOWLOON",61,Western,RR,,2016-11-12,Jordan,Wine,$101-200,201601
AMY'S KITCHEN,114.13776,Western,22.28699,"G/F, 352 DES VOEUX ROAD WEST, WESTERN, HONG KONG",18,Western,RL,,2016-05-05,Western District,,$51-100,201601
AN NAM,114.18464,South-east Asia,22.27847,"PORTION B, 4/F., THE LEE GARDENS, 33 HYSAN AVENUE, CAUSEWAY BAY, HONG KONG",12,,RL,,2016-03-12,Causeway Bay,,$201-400,201601
ANA GURA,114.15617,Japanese,22.28137,"UNIT 208-209, 2/F., YIP FUNG BUILDING, 2-18 D'AGUILAR STREET, CENTRAL, HONG KONG",18,Japanese,RL,#G#H,2016-01-25,Kowloon Tong,Sushi/Sashimi,$401-800,201601
ANA OYSTER & GRILL,114.18298,Western,22.28077,"THE WHOLE OF THE FOURTH FLOOR, KYOTO PLAZA, 491-499 LOCKHART ROAD, CAUSEWAY BAY, HONG KONG",12,"International, Seafood",RL,#F,2016-01-07,Tsim Sha Tsui,Seafood,$201-400,201601
ANALIE RESTAURANT INDONESIA,114.19692,South-east Asia,22.34301,"SHOP 2, G/F, CHENG FUNG MANSION, FEI FUNG STREET, WONG TAI SIN, KOWLOON",53,,RR,,2016-06-24,Mong Kok,Skewer,$51-100,201601
ANCHOR'S SEAFOOD & BEER HOUSE,114.09216,Western,22.36765,"G/F, THE BAY BRIDGE, 123 CASTLE PEAK ROAD, YAU KOM TAU, TSUEN WAN, NEW TERRITORIES",92,,RL,#G#H,2016-04-12,Mong Kok,,$201-400,201601
ANCIENT MOON,114.20023,South-east Asia,22.29021,"SHOP 29 (29A KAM PING STREET), G/F., BLOCK B, TUNG FAT BUILDING, 29, 29A, 31, 31A, 33, 33A, 35 & 35A KAM PING STREET, HONG KONG",11,,RL,,2016-07-08,North Point,,$51-100,201601
ANDY's GARAGE MEXICAN JOINT,114.19228,Western,22.27812,"G/F., 14A SUN CHUN STREET, CAUSEWAY BAY, HONG KONG",12,International,RR,,2016-08-30,Western District,Coffee Shop,$201-400,201601
ANGEL'S SHARE,114.15398,Taiwan,22.28212,"2/F., AMBER LODGE, 23 HOLLYWOOD ROAD, CENTRAL, HONG KONG",18,,RL,,2016-06-06,Sham Shui Po,Taiwanese Drink,Below $50,201601
ANT ONE,114.12668,Western,22.3579,"SHOP 189-195, LEVEL 1, METROPLAZA, 223 HING FONG ROAD, KWAI CHUNG, NEW TERRITORIES",91,International,RL,,2016-10-20,Hung Hom,,$101-200,201601
ANT ONE,114.16525,Western,22.34232,"SHOP NO. G9, G/F, FASHION WORLD, SITE 2, WONDERFUL WORLDS OF WHAMPOA, HUNG HOM, KOWLOON",52,International,RL,,2016-06-07,Hung Hom,,$101-200,201601
ANT ONE,114.19281,Western,22.34196,"SHOP NO. G13, GROUND FLOOR, TEMPLE MALL NORTH, 136 LUNG CHEUNG ROAD, WONG TAI SIN, KOWLOON",53,International,RL,,2016-05-04,Hung Hom,,$101-200,201601
ANT ONE,114.2085,Western,22.31959,"UNIT 25, L2, MEGABOX, ENTERPRISE SQUARE FIVE, 38 WANG CHIU ROAD, KOWLOON BAY, KOWLOON",51,International,RL,,2016-07-18,Hung Hom,,$101-200,201601
ANTHONY'S RANCH,114.27107,Western,22.38138,"G/F & COCKLOFT, BLOCK B, MAN YEE WAN SAN TSUEN, 28 YI CHUN STREET, SAI KUNG, NEW TERRITORIES",98,International,RL,,2016-07-16,Jordan,Wine,$201-400,201601
ANTIQUE BAR,114.17916,Western,22.27882,"1/F., WALDEN HOTEL, 353 HENNESSY ROAD, WAN CHAI, HONG KONG",12,International,RR,,2016-04-01,Tsim Sha Tsui,Wine,$201-400,201601
ANTOSHIMO-MIKIKI,114.19687,Western,22.33353,"SHOP G05B, G/F, MIKIKI, 638 PRINCE EDWARD ROAD EAST, SAN PO KONG, KOWLOON",53,Western,RR,,2016-04-10,San Po Kong,Western,$101-200,201601
ANY MOMENT,114.1698,Western,22.31513,"9/F., HANWAY COMMERCIAL CENTRE, 36 DUNDAS STREET, MONG KOK, KOWLOON",61,Western,RR,,2016-02-12,Mong Kok,Upper-floor Cafe,$101-200,201601
AOMORI RYOURI,113.97487,Japanese,22.39528,"GROUND FLOOR, NO. 39 TAK CHING COURT, TUEN MUN, NEW TERRITORIES",93,Japanese,RL,#G#H,2016-03-13,Tuen Mun,,$51-100,201601
APPA KITCHEN,114.17492,Mainland China,22.30273,"SHOP 4C, G/F, WINDSOR MANSION, 17 AUSTIN AVENUE, TSIM SHA TSUI, KOWLOON",61,"Guangdong, Noodles/Rice Noodles",RR,,2016-02-17,Happy Valley,Noodles/Rice Noodles,$201-400,201601
APRIL K,114.17573,,22.33127,"A-2, G/F, YAU YAT CHUEN, 15 FA PO ST., SHAM SHUI PO, KOWLOON",63,,RL,,2016-10-17,,,,201601
AQUA PLAZA,113.97481,Japanese,22.38733,"SHOP NO. S-120, LEVEL 1, ZONE S, H.A.N.D.S, YAU OI ESTATE,  YAU OI ROAD, TUEN MUN, NEW TERRITORIES",93,Japanese,RR,,2016-06-28,Tsim Sha Tsui,Italian,$401-800,201601
AQUA ROMA AQUA TOKYO,114.14734,Japanese,22.33296,"29/F & 30/F, ONE PEKING ROAD, TSIM SHA TSUI, KOWLOON",61,Japanese,RL,#G#H,2016-06-06,Tsim Sha Tsui,Italian,$401-800,201601
AQ牛扒屋,114.02791,Japanese,22.4418,"SHOP NO. 6, G/F, HO SHUN TAI BUILDING, 10 SAI CHING STREET, YUEN LONG, NEW TERRITORIES",94,Japanese,RL,,2016-02-11,Tsim Sha Tsui,Italian,$401-800,201601
ARCANE,114.15668,Western,22.28059,"3RD FLOOR, 18 ON LAN STREET, CENTRAL, HONG KONG",18,International,RL,,2016-05-31,Central,Fine Dining,$401-800,201601
ARENA BAR BY ZERVE,114.17398,,22.30137,"1/F, 10 KNUTSFORD TERRACE, TSIM SHA TSUI, KOWLOON",61,,RR,,2016-02-25,,,,201601
ARENA KITCHEN,113.9332,Western,22.31936,"F&B 15, 1/F., ASIA WORLD-EXPO, HONG KONG INTERNATIONAL AIRPORT, LANTAU, HONG KONG",17,International,RL,,2016-06-23,Chek Lap Kok,,$101-200,201601
ARIEL,114.1748,Japanese,22.3022,"SHOP M&L, G/F, UNIVERSAL MANSION, 52 HILLWOOD ROAD, TSIM SHA TSUI, KOWLOON",61,Japanese,RL,,2016-06-23,Central,Wine,$101-200,201601
ARIMA RESTAURANT,114.16719,Japanese,22.28061,"SHOP NO. 401, 4/F., CITIC TOWER, 1 TIM MEI AVENUE, CENTRAL, HONG KONG",18,"Japanese, Teppanyaki",RL,#F#G#H,2016-07-01,Admiralty,Teppanyaki,$401-800,201601
ARMANI AQUA,114.14734,Japanese,22.33296,"SHOP 203-205, 2/F & PORTION OF 3/F TERRACE, CHATER HOUSE, 8 CONNAUGHT ROAD CENTRAL, CENTRAL, HONG KONG",18,Japanese,RL,#G#H,2016-05-17,Tsim Sha Tsui,Italian,$401-800,201601
ARMY RAMEN,114.2306,Other,22.28026,"SHOP A2, G/F., THE EASTBORNE, 51 SHAU KEI WAN MAIN STREET EAST, SHAU KEI WAN, HONG KONG",11,,RR,,2016-03-28,Jordan,,$51-100,201601
AROMA COFFEE EXCHANGE,114.17162,Western,22.30804,"SHOP NO.1, LOWER GROUND LEVEL, ASTOR PLAZA, 380 NATHAN ROAD, KOWLOON",61,Bakery,RR,,2016-07-18,Central,Bakery,$101-200,201601
ASAHI KAWA JAPANESE CASUAL RESTAURANT,114.16495,,22.45307,"SHOP D, G/F, MERIT PLACE, 5 MEI SUN LANE, TAI PO, NEW TERRITORIES",95,,RL,#G#H,2016-04-08,,,,201601
ASAP,114.19106,Japanese,22.28595,"SHOP NO. 1, G/F., THE HEMISPHERES, NOS. 1-7A GORDON ROAD, CAUSEWAY BAY, HONG KONG",11,"Japanese, Western",RL,,2016-05-25,Causeway Bay,Western,$51-100,201601
ASHIMA YUNNAN RESTAURANT,114.21734,Mainland China,22.28676,"SHOP 003-004, G/F., CITYPLAZA, 18 TAIKOO SHING ROAD, TAIKOO SHING, HONG KONG",11,Stir-Fry,RL,,2016-06-19,Tai Koo,Stir-Fry,$101-200,201601
ASIA PACIFIC CATERING,114.1746,Hong Kong Style,22.30946,"HOSPITAL CANTEEN AT GROUND FLOOR, BLOCK B, CANTEEN, QUEEN ELIZABETH HOSPITAL, 30 GASCOIGNE ROAD, KOWLOON",61,,RL,,2016-10-02,Sai Kung,Fast Food,Below $50,201601
ASIAN BISTRO,114.19203,Korean,22.28839,"SHOP NO. 1, G/F., VICTOR COURT, 18 WANG ON ROAD, NORTH POINT, HONG KONG",11,BBQ,RL,,2016-06-21,Tsim Sha Tsui,BBQ,$201-400,201601
ASIAN COOKING,114.11759,South-east Asia,22.37057,"SHOP 3011, 3/F, CITY LANDMARK, 68 CHUNG ON STREET, TSUEN WAN, NEW TERRITORIES",92,Thai,RL,,2016-10-08,Tsuen Wan,Malaysian,$101-200,201601
ASIAN KITCHEN,114.17026,Western,22.30813,"G/F, 115 TEMPLE STREET, YAU MA TEI, KOWLOON",61,International,RR,,2016-02-25,Tsim Sha Tsui,Buffet,$401-800,201601
ASIANIA RESTAURANT,114.25195,Mainland China,22.35639,"SHOP 10 ON G/F & SHOPS 11-20 & 21A ON B1/F., EMPEROR GROUP CENTRE, 288 HENNESSY ROAD, WAN CHAI, HONG KONG",12,"Guangdong, Seafood",RL,,2016-02-09,Wan Chai,Seafood,$201-400,201601
ASK,114.15257,Western,22.28507,"SHOP 4, BASEMENT, KAI FUNG BUILDING, NOS. 2-24 JERVOIS STREET AND NOS. 189-205 QUEEN'S ROAD CENTRAL, HONG KONG",18,"Western, All Day Breakfast",RL,,2016-03-12,Kwun Tong,All Day Breakfast,$101-200,201601
ASOBU BISTRO,114.18827,Western,22.30614,"SHOP D3, G/F, TAK MAN BUILDING, NO. 29 TAK MAN STREET, HUNG HOM, KOWLOON",52,"Western, All Day Breakfast",RL,,2016-11-02,Tai Po,All Day Breakfast,$101-200,201601
ASRA INDIAN RESTAURANT,114.19328,Other,22.39737,"SHOP NO. 15 , 1/F, SHA TIN GALLERIA, 18-24 SHAN MEI STREET, FO TAN, SHA TIN, NEW TERRITORIES",97,Curry,RL,,2016-05-06,Fo Tan,Curry,$101-200,201601
ASSEMBLY,114.17242,Western,22.30028,"G/F, AND THE OUTSIDE SEATING ACCOMODATION AT SHOPFRONT, MIRA STUDIO HOTEL, NO. 6 KNUTSFORD TERRACE, KOWLOON",61,,RR,#A,2016-02-22,Tsim Sha Tsui,Mexican,$101-200,201601
ASTOR CAFE,114.17162,Hong Kong Style,22.30804,"SHOP 106-108, 1/F, ASTOR PLAZA, 380 NATHAN ROAD, KOWLOON",61,Noodles/Rice Noodles,RL,#F#G#H,2016-11-12,Tsim Sha Tsui,Noodles/Rice Noodles,Below $50,201601
AT BAR COMPANY LIMITED,113.97989,Western,22.38557,"G/F, 4 SAN TSING STREET, TUEN MUN, NEW TERRITORIES",93,Western,RR,,2016-11-12,Causeway Bay,Upper-floor Cafe,$101-200,201601
AT Club,114.02452,Western,22.44132,"SHOP 20 & 21, G/F, CRYSTAL PARK, 50 MA TIN ROAD, YUEN LONG, NEW TERRITORIES",94,"Western, All Day Breakfast",RR,,2016-04-08,Kwun Tong,All Day Breakfast,$201-400,201601
AT PUB,114.17484,Hong Kong Style,22.29785,"1/F, 17 HART AVENUE, TSIM SHA TSUI, KOWLOON",61,,RR,,2016-07-27,Yuen Long,Snack Shop & Deli,Below $50,201601
AT Restaurant & Bar,114.02873,Western,22.44133,"SHOP NO. 31, G/F, MANHATTAN PLAZA, 23 SAI CHING STREET, YUEN LONG, NEW TERRITORIES",94,Western,RR,,2016-04-23,Yuen Long,Wine,$101-200,201601
ATHENA 22,114.17475,Hong Kong Style,22.29663,"G/F, GOLDSLAND BUILDING, 22-26 MINDEN AVENUE, TSIM SHA TSUI, KOWLOON",61,,RR,,2016-04-02,Kwai Fong,Juice,Below $50,201601
ATUM DESSERANT,114.18162,South-east Asia,22.28036,"16/F., THE L. SQUARE, NO. 459-461 LOCKHART ROAD, CAUSEWAY BAY, HONG KONG",12,Thai,RR,,2016-04-08,Kwun Tong,,$51-100,201601
ATUM RESTAURANT,114.17363,,22.2976,"SHOP 101B, LEVEL 1, K11, 18 HANOI ROAD, TSIM SHA TSUI, KOWLOON",61,,RL,,2016-04-22,,,,201601
AUNTIE BETTY,114.18842,Western,22.31672,"G/F, SUNG LAI BUILDING, 34 SUNG KIT STREET, HUNGHOM, KOWLOON CITY, KOWLOON",52,International,RL,,2016-09-01,Causeway Bay,Wine,$101-200,201601
AUNTIE POLLY,114.17573,Hong Kong Style,22.33127,"SHOP NO. 3B, G/F, YAU YAT LAU, 11-11C FA PO STREET, KOWLOON",63,Noodles/Rice Noodles,RL,,2016-05-25,Kowloon Tong,Noodles/Rice Noodles,Below $50,201601
AURA LOUNGE,114.15467,Western,22.28192,"G/F., HARILELA HOUSE, 79 WYNDHAM STREET, CENTRAL, HONG KONG",18,Western,RL,,2016-07-02,Causeway Bay,Wine,$201-400,201601
AUSTIN LOBBY,114.1723,Western,22.30308,"1/F, 102 AUSTIN ROAD, TSIM SHA TSUI, KOWLOON",61,Western,RL,,2016-07-06,Tsim Sha Tsui,Buffet,$201-400,201601
AV NIGHT CLUB,114.17587,Hong Kong Style,22.30212,"3/F, WOON LEE COMMERCIAL BUILDING, 7-9 AUSTIN AVENUE, TSIM SHA TSUI, KOWLOON",61,Dim Sum,RR,#B,2016-06-03,Sha Tin,Dim Sum,Below $50,201601
AV members Club,114.18317,Western,22.28094,"9/F, RICHMOND PLAZA, 496 JAFFE RD., CAUSEWAY BAY, WAN CHAI, HONG KONG",12,Western,RR,,2016-12-04,Central,Buffet,$101-200,201601
AVA Restaurant Slash Bar,114.17474,Western,22.29768,"38/F, HOTEL PANORAMA, 8A HART AVENUE, TSIM SHA TSUI, KOWLOON",61,International,RL,#F#G#H,2016-06-16,Tsim Sha Tsui,Wine,$201-400,201601
AWAKENING,114.02516,Japanese,22.44121,"SHOP 18, G/F, YEE FUNG GARDEN, 38 MA TIN ROAD, YUEN LONG, NEW TERRITORIES",94,Japanese,RR,,2016-01-08,Central,Omakase,Above $801,201601
AYAM PENYET RIA,114.18515,Western,22.2792,"SHOP 5, G/F., THE GRANDEUR, 48 JARDINE'S CRESCENT, CAUSEWAY BAY, HONG KONG",12,Seafood,RL,,2016-02-08,Tuen Mun,Seafood,$201-400,201601
AZURE,114.09667,Mainland China,22.35758,"29/F & 30/F., LKF TOWER, 33 WYNDHAM STREET, CENTRAL, HONG KONG",18,,RL,#F#G#H,2016-03-19,Tsim Sha Tsui,Shanghai,$201-400,201601
Abcb,114.16855,Western,22.32557,"G/F, 161 SAI YEUNG CHOI STREET NORTH, MONG KOK, KOWLOON",62,Western,RR,,2016-06-09,Mong Kok,Wine,$51-100,201601
Aberdeen Street,114.15152,Japanese,22.28271,"SHOP NO. 1, UPPER GROUND FLOOR, KING HO BUILDING, NOS. 41-49 ABERDEEN STREET, HONG KONG",18,Japanese,RL,,2016-06-10,Central,Dessert,Below $50,201601
Above,114.16907,Western,22.24962,"PORTION OF 23/F., 64 WONG CHUK HANG ROAD, ABERDEEN, HONG KONG",15,Western,RR,,2017-02-05,Wong Chuk Hang,Wine,$201-400,201601
Aero Pub,114.18893,Western,22.31868,"G/F, 45 SA PO ROAD, KOWLOON CITY, KOWLOON",52,Western,RL,,2016-08-18,Kowloon City,,$51-100,201601
After Five,114.16495,Western,22.45307,"SHOP A, G/F, MERIT PLACE, 5 MEI SUN LANE, TAI PO, NEW TERRITORIES",95,Western,RR,,2016-04-29,Tai Wo,Wine,$201-400,201601
After Ninety,114.16346,Western,22.31927,"SHOP NO. 10, G/F, KING WANG HEIGHTS, 1-39 TIT SHU STREET, TAI KOK TSUI, KOWLOON",62,International,RR,,2016-02-03,Tuen Mun,Wine,$101-200,201601
Again. S Lounge,114.17389,,22.29964,"7/F, LAMMA TOWER, 12-12A  HAU FOOK STREET, TSIM SHA TSUI, KOWLOON",61,,RR,,2016-11-30,,,,201601
Agave,114.15561,Mainland China,22.28063,"SHOP 1, G/F., COSMOS BUILDING, 8-11 LAN KWAI FONG, CENTRAL, HONG KONG",18,"Guangdong, Dim Sum",RR,,2016-06-17,Tsim Sha Tsui,Dim Sum,$101-200,201601
Agave,114.18156,Mainland China,22.28049,"SHOP C&D, G/F, 93-107 LOCKHART ROAD, WAN CHAI, HONG KONG",12,"Guangdong, Dim Sum",RL,#C,2016-07-25,Tsim Sha Tsui,Dim Sum,$101-200,201601
Agnes B. Cafe LPG,114.18409,Western,22.2817,"PORTION OF SHOP P101, PODIUM 1, THE WORLD TRADE CENTRE, 280 GLOUCESTER ROAD, CAUSEWAY BAY, HONG KONG",12,,RR,,2016-09-20,Mong Kok,Dessert,$201-400,201601
Agnes B. Le Pain Grille,114.17363,Western,22.2976,"SHOP NO. 117 & 118, 1/F, K11, 18 HANOI ROAD, TSIM SHA TSUI, KOWLOON",61,,RL,,2016-04-03,Tai Koo,Dessert,$51-100,201601
Agnes B. Le Pain Grille,114.18268,Western,22.277,"SHOP 1 ON THE GROUND FLOOR, 111 LEIGHTON ROAD, CAUSEWAY BAY, HONG KONG",12,,RL,,2017-01-14,Tai Koo,Dessert,$51-100,201601
Agnes B.Cafe L.P.G.,114.16767,Western,22.29945,"OPPOSITE TO SHOP 2321 & 2322, LEVEL 2, GATEWAY ARCADE, HARBOUR CITY, TSIM SHA TSUI, KOWLOON",61,,RR,,2016-11-15,Tai Wai,Dessert,$201-400,201601
Agnes b. Cafe L.P.G,114.16771,Western,22.30132,"PORTION OF G-02, G/F, THE SUN ARCADE, 28 CANTON ROAD, TSIM SHA TSUI, KOWLOON",61,,RR,,2016-03-12,Tai Wai,Dessert,$201-400,201601
Agnes b. Cafe L.P.G.,114.15283,Western,22.28402,"G/F (MAJOR PORTION), CHUNG SHAN HOUSE, 8 & 10 GOUGH STREET, HONG KONG",18,,RR,,2016-06-04,Tai Wai,Dessert,$201-400,201601
Agnes b. Cafe L.P.G.,114.18247,Western,22.27828,"PORTION OF KIOSK D, 6TH FLOOR, TIMES SQUARE, 1 MATHESON STREET, CAUSEWAY BAY, HONG KONG",12,,RR,,2016-05-13,Tai Wai,Dessert,$201-400,201601
Agnes b. Cafe L.P.G.,114.18846,Western,22.38198,"PORTION OF SHOP NOS. 390, 391 AND 392, LEVEL 3, COMMERCIAL UNITS, NEW TOWN PLAZA, SHA TIN, NEW TERRITORIES",97,,RR,,2017-02-13,Tai Wai,Dessert,$201-400,201601
Agnes b. cafe L.P.G.,114.25956,Western,22.30794,"SHOP UNIT G14, POPCORN, 9 TONG YIN STREET, TSEUNG KWAN O, SAI KUNG, NEW TERRITORIES",98,,RR,,2016-10-07,Tai Wai,Dessert,$201-400,201601
Ah Nam Kitchen,114.16983,Mainland China,22.32492,"G/F., 211 FA YUEN STREET, KOWLOON",62,,RL,#G,2016-02-15,Prince Edward,Northeastern,$101-200,201601
Ah Yat Harbour View Restaurant,114.17149,Mainland China,22.29656,"SHOP NO. 2, 29/F, ISQUARE, 35-79  NATHAN ROAD, 18-20 PEKING ROAD , 10-30 LOCK ROAD, KOWLOON",61,"Guangdong, Dim Sum",RL,,2016-08-12,Tsim Sha Tsui,Dim Sum,$401-800,201601
Ah Yeung Restaurant,114.16923,Hong Kong Style,22.3158,"SHOP D, G/F, CHEUNG HING HOUSE, 3 CHANGSHA STREET, MONG KOK, KOWLOON",62,Tea Restaurant,RL,,2016-05-13,Cheung Sha Wan,Tea Restaurant,$51-100,201601
Airisu Cuisine,114.17244,Western,22.30513,"1/F, CITY 18, 18 TAK HING STREET, JORDAN, KOWLOON",61,,RL,#F#G#H,2016-06-19,Causeway Bay,Fine Dining,$401-800,201601
Airport Izakaya,113.93425,Japanese,22.31878,"SHOP G01, G/F., REGAL AIRPORT HOTEL, 9 CHEONG TAT ROAD, CHEK LAP KOK, LANTAU ISLAND, NEW TERRITORIES",17,Japanese,RL,#G#H,2016-11-22,Chek Lap Kok,Sushi/Sashimi,$201-400,201601
Aji Bou lzakaya,114.19645,Taiwan,22.3821,"OUTLET 7, G/F, REGAL RIVERSIDE HOTEL, 34-36 TAI CHUNG KIU ROAD, SHA TIN, NEW TERRITORIES",97,,RL,,2016-02-24,Tsim Sha Tsui,Hot Pot,$201-400,201601
Aji Ichiban,114.17329,Japanese,22.30258,"SHOP 2A, 3, 5, 6 AND 7, G/F, HILLWOOD COURT, 22-28 HILLWOOD ROAD, TSIM SHA TSUI, KOWLOON",61,Japanese,RL,#G#H,2016-02-14,Tsim Sha Tsui,Robatayaki,$201-400,201601
Aji Ichiban,114.17495,Japanese,22.30141,"SHOP A, UPPER GROUND FLOOR, PACIFIC BUILDING, 65-67 KIMBERLEY ROAD, TSIM SHA TSUI, KOWLOON",61,Japanese,RL,#F#G#H,2016-06-02,Tsim Sha Tsui,Robatayaki,$201-400,201601
Ajijiman Japanese Restaurant,114.22383,,22.28605,"SHOP GB 18, 19 &  20, YAT WAH MANSION, 45 TAI HONG STREET, LEI KING WAN, HONG KONG",11,,RL,#G#H,2017-01-14,,,,201601
Ajisai,114.13281,Japanese,22.3621,"SHOP 215, LEVEL 2, KOWLOON COMMERCE CENTRE, 51 KWAI CHEONG ROAD, KWAI CHUNG, NEW TERRITORIES",91,"Japanese, Western",RL,#G#H,2016-09-28,Tsim Sha Tsui,Western,$101-200,201601
Ajisan Ramen,114.20399,Japanese,22.38692,"SHOP NOS. 107-108, 1/F, FORTUNE CITY ONE, SHA TIN, NEW TERRITORIES",97,Japanese,RL,#G#H,2016-12-09,Tai Po,Ramen,$51-100,201601
Ajisen Ramen,114.15105,Japanese,22.28806,"SHOP UNIT 231B, 2/F., SHUN TAK CENTRE, 200 CONNAUGHT ROAD CENTRAL, CENTRAL, HONG KONG",18,Japanese,RL,,2016-05-24,Yau Ma Tei,Ramen,$51-100,201601
Ajisen Ramen,114.15371,Japanese,22.2484,"G/F., SHOP 8, SITE 5, 8 NAM NING STREET, ABERDEEN CENTRE, HONG KONG",15,Japanese,RL,,2016-01-23,Yau Ma Tei,Ramen,$51-100,201601
Ajisen Ramen,114.16939,Japanese,22.29753,"STALL NO. 09 OF SHOP NO. B01 BASEMENT FLOOR, SILVERCORD, 30 CANTON ROAD, TSIM SHA TSUI, KOWLOON",61,Japanese,RL,,2016-11-27,Yau Ma Tei,Ramen,$51-100,201601
Ajisen Ramen,114.17044,Japanese,22.4535,"SHOP NO. 61 & 62, GROUND FLOOR, TAI PO PLAZA, 1 ON TAI ROAD, TAI PO, NEW TERRITORIES",95,Japanese,RL,,2016-03-28,Yau Ma Tei,Ramen,$51-100,201601
Ajisen Ramen,114.22798,Japanese,22.30688,"SHOPS 24-27, G/F, LAGUNA PLAZA, 88 CHA KWO LING ROAD, KWUN TONG, KOWLOON",51,Japanese,RL,,2016-02-23,Yau Ma Tei,Ramen,$51-100,201601
Ajisen Ramen,114.23179,Japanese,22.42413,"SHOP NO. 2233A, LEVEL 2, SUNSHINE CITY PLAZA, STTL 307, MA ON SHAN, SHA TIN, NEW TERRITORIES",97,Japanese,RL,,2016-09-21,Yau Ma Tei,Ramen,$51-100,201601
Ajisen Ramen,114.23632,Japanese,22.2637,"SHOP NO. 114B, LEVEL 1, NEW JADE SHOPPING ARCADE, CHAI WAN, HONG KONG",11,Japanese,RL,,2016-05-26,Yau Ma Tei,Ramen,$51-100,201601
Ajisen Rameu & Ishiyaki Cafe,114.12812,Japanese,22.50322,"SHOPS 401-403, 4/F, SPOT, 48 LUNG SUM AVENUE, SHEK WU HUI, SHEUNG SHUI, NEW TERRITORIES",96,Japanese,RL,#G#H,2016-04-29,Mong Kok,Ramen,$51-100,201601
Aka Japanese Food,114.19203,Japanese,22.28839,"SHOP 14, G/F., VICTOR COURT, 14-18 WANG ON ROAD, NORTH POINT, HONG KONG",11,Japanese,RL,#G#H,2016-11-28,Tsim Sha Tsui,Snack Shop & Deli,Below $50,201601
Akamaru Noodles Factory,114.23861,Hong Kong Style,22.29622,"SHOP 133 & 134, 1/F, DOMAIN, 38 KO CHIU ROAD, YAU TONG, KOWLOON",51,Noodles/Rice Noodles,RL,,2016-06-05,Wan Chai,Noodles/Rice Noodles,$51-100,201601
Akita Robatayaki & Teppanyaki,114.16771,Japanese,22.30132,"FIRST FLOOR, 8 OBSERVATORY COURT, TSIM SHA TSUI, KOWLOON",61,Japanese,RL,#F#G#H,2016-07-19,Tsim Sha Tsui,Robatayaki,$201-400,201601
Alabar,114.18425,Western,22.2689,"SHOP NO.3(NO.38), THE UG/F, KAM KWONG MANSION, 36-44 KING KWONG ST., HAPPY VALLEY, WAN CHAI, HONG KONG",12,Western,RR,,2016-05-14,Happy Valley,Wine,$101-200,201601
Albert's Kitchen,114.22798,,22.30688,"SHOP 19, G/F, LAGUNA PLAZA, 88 CHA KWO LING ROAD, KWUN TONG, KOWLOON",51,,RR,,2016-03-22,,,,201601
Alfafa,114.21611,Western,22.28498,"SHOP NO. M2, MEZZANINE FLOOR, KORNHILL PLAZA, 1 KORNHILL ROAD, HONG KONG",11,"Western, Seafood",RL,,2016-08-28,Tai Koo,Seafood,$51-100,201601
Alize Noire De Nova,114.20066,Western,22.29207,"SHOP 116-125, 1/F., MARBLE GARDEN, 33 MARBLE ROAD, NORTH POINT, HONG KONG",11,,RL,#F,2016-10-05,Tsim Sha Tsui,Dessert,$201-400,201601
All Night Long,114.1734,Japanese,22.31744,"G/F AND OUTSIDE SEATING ACCOMODATION IN FRONT OF G/F, 9 KNUTSFORD TERRACE, KOWLOON",61,Japanese,RR,#A,2016-12-14,Tsim Sha Tsui,Wine,$101-200,201601
Allegretto,114.16736,Western,22.30077,"SHOP NO. 1A, PROMENADE LEVEL, TOWER 3, CHINA HONG KONG CITY, 33 CANTON ROAD, TSIM SHA TSUI, KOWLOON",61,International,RR,,2016-12-18,Causeway Bay,,$201-400,201601
Aloha Club,114.17389,Western,22.29964,"16/F, THE LAMMA TOWER, 12-12A  HAU FOOK STREET, TSIM SHA TSUI, KOWLOON",61,International,RR,,2016-08-01,Causeway Bay,,$101-200,201601
Amaroni's Little Italy,114.17457,Western,22.3373,"132, UNIT LG, FESTIVAL WALK, 80 TAT CHEE AVENUE, KOWLOON TONG, SHAM SHUI PO, KOWLOON",63,,RL,#E,2016-06-13,Mong Kok,Pizza,$101-200,201601
Amazing Kitchen,114.02819,Mainland China,22.21105,"G/F., 49 PAK SHE STREET, CHEUNG CHAU, HONG KONG",17,Guangdong,RL,,2016-08-26,Mong Kok,Vegetarian,Below $50,201601
Amazonia,114.1715,Western,22.27849,"G/F., HENAN BUILDING, 90 & 92 JAFFE ROAD, 15-19 LUARD ROAD, WAN CHAI, HONG KONG",12,Western,RR,,2016-11-07,Wan Chai,,$201-400,201601
Amber Coffee & Kitchen,114.19244,Western,22.27943,"SHOP E, G/F., MING SUN BUILDING, 92 TUNG LO WAN ROAD, HONG KONG",12,"Western, All Day Breakfast",RL,,2016-03-20,Jordan,All Day Breakfast,$51-100,201601
Ambrosia Oyster Bar & Grill,114.17187,Western,22.29674,"SHOP NO. 2802, 28/F, ISQUARE, 63 NATHAN ROAD, TSIM SHA TSUI, KOWLOON",61,"Western, Seafood",RL,#F,2016-07-06,Tsim Sha Tsui,Seafood,$201-400,201601
American Seafood & Grill,114.20466,Western,22.38541,"SHOP 71-73 & 82B, G/F, FORTUNE CITY ONE, CITY ONE SHATIN, SHA TIN, NEW TERRITORIES",97,Seafood,RL,#F,2016-02-22,Central,Seafood,$51-100,201601
Americanos,114.1491,Western,22.28521,"SHOP C, G/F., PONG FAI BUILDING, 2 LOK KU ROAD, SHEUNG WAN, HONG KONG",18,International,RR,,2016-06-21,Causeway Bay,Coffee Shop,$101-200,201601
Amico,114.17312,Western,22.30122,"7/F, ONE KNUTSFORD, 1 KNUTSFORD TERRACE, TSIM SHA TSUI, KOWLOON",61,Western,RL,,2016-09-26,Mong Kok,Pizza,$101-200,201601
Amigo,114.18489,Western,22.27186,"G/F & 1/F, 79A-79B WONG NAI CHUNG ROAD, HAPPY VALLEY, WAN CHAI, HONG KONG",12,,RL,#E#F,2016-06-30,Happy Valley,Steak House,Above $801,201601
Amin Indonesia Restaurant,114.16152,,22.33271,"G/F, 57 YEN CHOW STREET, SHAM SHUI PO, KOWLOON",63,,RR,,2017-01-12,,,,201601
Amin Indonesian Restaurant,114.17108,,22.31589,"SHOP E, G/F, NO. 1M-1T TUNG CHOI STREET, WAH FAT BUILDING, MONG KOK, KOWLOON",62,,RL,,2016-04-04,,,,201601
Amo La Pasta,114.11431,Western,22.37,"SHOP 108 & 110, FIRST FLOOR, CITYWALK, 1 YEUNG UK ROAD, TSUEN WAN, NEW TERRITORIES",92,,RR,,2016-12-20,Western District,,$401-800,201601
Amour Corner,114.16898,,22.31698,"GROUND FLOOR, 106 PORTLAND STREET, KOWLOON",61,,RR,,2016-08-28,,,,201601
Amoy Pub,114.17167,Western,22.27545,"SHOP D2, G/F., MOUNTAIN VIEW MANSION, NO. 1 AMOY STREET, WAN CHAI, HONG KONG",12,International,RR,,2016-12-16,Wan Chai,Wine,$101-200,201601
Amuse,114.11238,Western,22.37477,"G/F, 417 CASTLE PEAK ROAD, TSUEN WAN, NEW TERRITORIES",92,Western,RR,,2016-12-17,Jordan,Wine,$101-200,201601
Amuse Bouche,114.1761,Western,22.27768,"22/F., THE HENNESSY, 256 HENNESSY ROAD, WANCHAI, HONG KONG",12,,RL,#F#G#H,2016-03-30,Admiralty,Fine Dining,Above $801,201601
An Nam,114.0369,South-east Asia,22.44347,"SHOP 1073, LEVEL 1, YOHO MALL I, 9 YUEN LUNG STREET, YUEN LONG, NEW TERRITORIES",94,,RL,,2016-02-27,Causeway Bay,,$201-400,201601
Angelina,114.15666,Western,22.28662,"PORTION A OF SHOP 3025-3026 & 3031-3066, LEVEL 3, IFC MALL, 8 FINANCE STREET, CENTRAL, HONG KONG AND THE OUTSIDE SEATING ACCOMMODATION, HONG KONG",18,,RL,,2016-04-03,Tsim Sha Tsui,Hotel Restaurant,$401-800,201601
Angelitte Restaurant,114.21298,Hong Kong Style,22.21816,"SHOP C&D, LOWER G/F, 126 STANLEY MAIN STREET, STANLEY, SOUTHERN, HONG KONG",15,Japanese,RL,,2016-06-30,Sheung Wan,Japanese,Below $50,201601
Antipasto,114.15219,Western,22.28202,"G/F., 25 ELGIN STREET, CENTRAL, HONG KONG",18,,RL,,2016-03-13,Central,French,$401-800,201601
Antoshimo Cafe & Bakery,114.16849,Japanese,22.31883,"SHOP 21, 22 AND 23, LEVEL 10, LANGHAM PLACE, 8 ARGYLE STREET, MONG KOK, KOWLOON",62,"Japanese, Bakery",RL,,2016-09-15,Diamond Hill,Bakery,$51-100,201601
Antoshimo Cafe & Bakery,114.20197,Japanese,22.3407,"SHOP 182, LEVEL 1, PLAZA HOLLYWOOD, DIAMOND HILL, KOWLOON",53,"Japanese, Bakery",RR,,2016-04-20,Diamond Hill,Bakery,$51-100,201601
Anytime,114.18586,Western,22.28099,"SHOP 4 & 5, 1/F, JP PLAZA, PEARL CITY MANSION, 22-36 PATERSON ST., CAUSEWAY BAY, WAN CHAI, HONG KONG",12,International,RL,,2017-02-22,Tin Hau,Fine Dining,$401-800,201601
Aoba Japanese Restaurant,114.17427,Japanese,22.29972,"BASEMENT, LUXURY COURT, 9 HAU FOOK STREET, TSIM SHA TSUI, KOWLOON",61,Japanese,RL,#G#H,2016-05-26,Causeway Bay,Robatayaki,$101-200,201601
Aomri Ryouri,114.12951,Japanese,22.50422,"G/F, 6 SAN CHEUNG STREET, SHEUNG SHUI, NEW TERRITORIES",96,Japanese,RL,#G#H,2017-01-01,Tuen Mun,,$51-100,201601
Applegreen,114.0369,Western,22.44347,"SHOP NO. G010, G/F, YOHO MALL, 9 YUEN LUNG STREET, YUEN LONG, NEW TERRITORIES",94,Western,RL,,2016-02-24,Tsim Sha Tsui,Wine,$51-100,201601
Applegreen,114.18831,Western,22.31647,"PORTION OF SHOPPING ARCADE ADJACENT TO B107-B108 AND B107-B108, B1/F, KOWLOON CITY PLAZA, 128 CARPENTER ROAD, KOWLOON CITY, KOWLOON",52,Western,RL,,2016-07-29,Tsim Sha Tsui,Wine,$51-100,201601
Applegreen - HOS,114.12635,Western,22.35746,"SHOP NOS. 267-269, LEVEL 2, METROPLAZA, 223 HING FONG ROAD   , KWAI FONG, KWAI CHUNG, NEW TERRITORIES",91,International,RL,,2016-11-02,Mong Kok,Wine,$101-200,201601
Applegreen - R&B,114.17211,Western,22.30247,"SHOP 3A, 3/F, PACIFIC MANSION, 172-174 NATHAN ROAD, TSIM SHA TSUI, KOWLOON",61,Western,RL,,2016-08-14,Tsim Sha Tsui,Wine,$101-200,201601
Applegreen-HOS,114.17211,Western,22.30247,"SHOP 2A, 2/F, PACIFIC MANSION, 172-174 NATHAN ROAD, TSIM SHA TSUI, KOWLOON",61,International,RL,,2016-06-23,Central,Vegetarian,$101-200,201601
April Cafe,114.22544,Western,22.3163,"SHOP G, G/F, WANG YIP BUILDING, 2-26 KA LOK STREET, KWUN TONG, KOWLOON",51,Western,RR,,2016-10-27,Wan Chai,Romantic Dining,$201-400,201601
Aqua City Bakery,114.06324,Western,22.35445,"AQUA CITY BAKERY, AT P/F., WEST RETAIL BUILDING, OCEAN PARK, OUTSIDE SEATING ACCOMMODATION ON THE PAVEMENT , AT SHOP FRONT, ABERDEEN, HONG KONG",15,"Western, Bakery",RL,#A#D,2016-06-09,Wong Chuk Hang,Bakery,Below $50,201601
Aqua2,114.17029,Hong Kong Style,22.29757,"5/F, 27 ASHLEY ROAD, TSIM SHA TSUI, KOWLOON",61,,RR,,2017-01-11,Tsim Sha Tsui,Wine,$201-400,201601
Aquadeli,114.22202,Hong Kong Style,22.28161,"G/F., 128 SHAU KEI WAN ROAD, SHAU KEI WAN, HONG KONG",11,,RR,,2016-06-26,North Point,,Below $50,201601
Aquar Bar,114.17197,Western,22.316,"ROOM 302, 3/F, HO KING COMMERCIAL CENTRE, 2 FA YUEN STREET, MONG KOK, KOWLOON",62,Western,RL,,2016-08-02,Tsim Sha Tsui,Wine,$201-400,201601
Arashi Japanese Restaurant,114.18007,Japanese,22.28022,"SHOP A, G/F., 391-407 JAFFE ROAD, WAN CHAI, HONG KONG",12,Japanese,RL,#G#H,2016-04-24,North Point,Ramen,$51-100,201601
Arashigawa,114.12746,Japanese,22.28273,"SHOP G, G/F., SHUN CHEONG BUILDING, 28 HAU WO STREET, KENNEDY TOWN, HONG KONG",18,Japanese,RL,,2016-04-10,Sai Wan Ho,Sushi/Sashimi,$51-100,201601
Arashigawa,114.15047,Japanese,22.28571,"G/F., 105 JERVOIS STREET, SHEUNG WAN, HONG KONG",18,Japanese,RL,#G#H,2016-10-11,Sai Wan Ho,Sushi/Sashimi,$51-100,201601
Arashiyama Japanese Restaurant,114.17433,Japanese,22.29695,"G/F, NO. 11 MINDEN AVENUE, TSIM SHA TSUI, KOWLOON",61,Japanese,RL,#F#G#H,2016-08-19,Tsim Sha Tsui,Sushi/Sashimi,$201-400,201601
Arirang Korean Restaurant,114.17026,Korean,22.29758,"UNIT A, 1/F, KOWLOON CENTRE, 33 ASHLEY ROAD, TSIM SHA TSUI, KOWLOON",61,,RL,#E,2016-12-23,Wan Chai,Korean BBQ,$101-200,201601
Arirang Korean Restaurant,114.17837,Korean,22.27815,"3/F., W SQUARE, 314-324 HENNESSY ROAD, WAN CHAI, HONG KONG",12,,RL,#E,2016-11-20,Wan Chai,Korean BBQ,$101-200,201601
Arome Bakery,114.15793,Western,22.31883,"SHOP NOS. UG30-31, UG/F, OLYMPIAN CITY 1, OLYMPIAN CITY, KOWLOON",62,"Western, Bakery",RR,,2016-05-30,Mong Kok,Bakery,Below $50,201601
Arome Bakery,114.26271,Western,22.30826,"PORTION B OF SHOP NO. 1-078, LEVEL 1, TSEUNG KWAN O PLAZA, 1 TONG TAK STREET, TSEUNG KWAN O, SAI KUNG, NEW TERRITORIES",98,"Western, Bakery",RR,,2016-02-16,Mong Kok,Bakery,Below $50,201601
Art Veggies,114.15155,Western,22.28688,"2/F., FUNG WOO BUILDING, 279 DES VOEUX ROAD CENTRAL, SHEUNG WAN, HONG KONG",18,International,RL,,2016-03-12,Wan Chai,Vegetarian,$51-100,201601
Artisan Cafe,114.19175,Western,22.28536,"G/F., 118 ELECTRIC ROAD, NORTH POINT, HONG KONG",11,Western,RR,,2016-08-09,Tin Hau,Coffee Shop,$51-100,201601
Arun Thai Restaurant,114.17363,South-east Asia,22.2976,"SHOP 22, GROUND FLOOR, K11, 18  HANOI ROAD, TSIM SHA TSUI, KOWLOON",61,"Thai, Curry",RL,,2016-07-01,Tsim Sha Tsui,Curry,$101-200,201601
As You Like Restaurant,114.17834,Hong Kong Style,22.27963,"SHOP NO. 2, G/F., FASTEEM MANSION, NOS. 307-311 JAFFE ROAD, WAN CHAI, HONG KONG",12,,RL,,2016-04-23,Causeway Bay,Sichuan,$201-400,201601
Asakusa Loung III,114.16935,Mainland China,22.32598,"SHOP B, G/F, 248-250 TUNG CHOI STREET, KOWLOON",62,"Guangdong, Seafood",RR,#C,2017-01-14,Sai Kung,Seafood,$401-800,201601
Asia Night Club,114.27249,Western,22.29326,"6/F-7/F, 607 NATHAN ROAD, MONG KOK, KOWLOON",62,International,RL,#B,2016-06-30,Central,Club House,$401-800,201601
Asia Pacific,114.13092,Hong Kong Style,22.27111,"STAFF CANTEEN ON 1ST FLOOR OF BLOCK K & STAFF RESTAURANT ON 2ND FLOOR OF BLOCK K, QUEEN MARY HOSPITAL, 102 POK FU LAM ROAD, HONG KONG",15,,RL,,2017-02-12,Tseung Kwan O,Fast Food,Below $50,201601
Asia Pacific,114.13469,Hong Kong Style,22.34014,"STAFF CANTEEN, 4TH FLOOR, BLOCK G, PRINCESS MARGARET HOSPITAL, PRINCESS MARGARET HOSPITAL ROAD, KWAI CHUNG, NEW TERRITORIES",91,,RL,,2016-04-24,Tseung Kwan O,Fast Food,Below $50,201601
Asia Pacific,114.1754,Hong Kong Style,22.27612,"LG1, MAIN BUILDING, RUTTONJEE HOSPITAL, 266 QUEEN'S ROAD EAST, WANCHAI, HONG KONG",12,,RL,,2016-02-09,Tseung Kwan O,Fast Food,Below $50,201601
Asia Pacific,114.18323,Hong Kong Style,22.32431,"CANTEEN, 2/F, HOSPITAL AUTHORITY BUILDING, 147B ARGYLE STREET, KOWLOON",52,,RL,,2016-07-18,Tseung Kwan O,Fast Food,Below $50,201601
Asia Pacific,114.22771,Hong Kong Style,22.32258,"SECOND BASEMENT FLOOR, BLOCK S, UNITED CHRISTIAN HOSPITAL, 130 HIP WO STREET, KWUN TONG, KOWLOON",51,,RL,,2017-01-31,Tseung Kwan O,Fast Food,Below $50,201601
Asia Pacific Catering,114.23628,Hong Kong Style,22.26886,"PORTION OF LG2 AND THE “FOOD HALL” - 3/F., MAIN BLOCK, PAMELA YOUDE NETHERSOLE EASTERN HOSPITAL, 3 LOK MAN ROAD, CHAI WAN, HONG KONG",11,,RL,,2016-10-24,Sai Kung,Fast Food,Below $50,201601
AsiaWorld-Summit,114.13292,Korean,22.28414,"MAJOR PORTION OF HALL 2, MINOR PORTION OF HALL 1, AND PORTION OF HALL 11, ASIAWORLD-EXPO, HONG KONG INTERNATIONAL AIRPORT, LANTAU, HONG KONG",17,,RL,#G,2016-05-05,Causeway Bay,Ramen,$51-100,201601
Asian Noodles & More,114.17306,South-east Asia,22.28302,"L5 (PORTION B), HONG KONG CONVENTION AND EXHIBITION CENTRE, 1 EXPO DRIVE, WANCHAI, HONG KONG",12,Thai,RR,,2016-12-10,Tsim Sha Tsui,,$51-100,201601
Asian Twist,114.17693,Korean,22.28032,"SHOP NO.104, 104A, 105A, 106-108, LEVEL 1, SUN HUNG KAI CENTRE, 30 HARBOUR ROAD, WAN CHAI, HONG KONG",12,,RL,,2016-07-31,Jordan,,$51-100,201601
Assaggio Trattoria Italiana,114.17081,,22.28017,"6/F., HONG KONG ARTS CENTRE, 2 HARBOUR ROAD, WAN CHAI, HONG KONG",12,,RL,,2016-12-27,,,,201601
Assaggio Trattoria Italiana,114.17242,,22.30028,"SHOP 213A & 215, 2/F, MIRA MALL, 118-130 NATHAN ROAD, TSIM SHA TSUI, KOWLOON",61,,RL,,2016-05-20,,,,201601
Austin Bar & Club,114.17622,Western,22.30197,"SHOP A, G/F, GOLDEN HOUSE, 1 AUSTIN AVENUE, TSIM SHA TSUI, KOWLOON",61,Western,RR,,2016-04-01,Tsim Sha Tsui,Wine,$101-200,201601
Awfully Chocolate,114.16849,Western,22.31883,"SHOP 20, LEVEL 4, LANGHAM PLACE, 8 ARGYLE STREET, MONG KOK, KOWLOON",62,Western,RR,,2016-02-09,Tsim Sha Tsui,Wine,$51-100,201601
Ayutthaya,114.16459,South-east Asia,22.31752,"SHOP 28, G/F, OLYMPIAN CITY 3, NO. 1 HOI WANG ROAD, KOWLOON",62,Thai,RL,,2016-06-15,Causeway Bay,,$51-100,201601
Azabu Sabo,114.18651,Hong Kong Style,22.33777,"SHOP L224-L225 AND SEATING AREA IN SHOP FRONT, G/F, LOK FU PLAZA, LOK FU ESTATE, 198 JUNCTION ROAD, KOWLOON",53,,RL,#G#H,2016-10-19,Ho Man Tin,Dessert,Below $50,201601
Azabu Sabo,114.19281,Hong Kong Style,22.34196,"SHOP NO. N142, LEVEL 1, TEMPLE MALL NORTH, 136 LUNG CHEUNG ROAD, WONG TAI SIN, KOWLOON",53,,RL,#G#H,2016-04-18,Ho Man Tin,Dessert,Below $50,201601
Azabu Sabo,114.21641,Hong Kong Style,22.3241,"SHOP G114-115, G/F, AMOY PLAZA OF AMOY GARDENS, PHASE 1, 77 NGAU TAU KOK ROAD, KOWLOON",51,,RL,#G#H,2016-11-15,Ho Man Tin,Dessert,Below $50,201601
Azabu Sabo,114.25992,Hong Kong Style,22.30853,"SHOP 5, 2/F, CROWNE PLAZA HONG KONG KOWLOON EAST, 3 TONG TAK STREET, TSEUNG KWAN O, SAI KUNG, NEW TERRITORIES",98,,RL,#G#H,2016-06-10,Ho Man Tin,Dessert,Below $50,201601
B & B,114.11159,Western,22.22641,"G/F., 22 YUNG SHUE WAN MAIN STREET, YUNG SHUE WAN, LAMMA ISLAND, NEW TERRITORIES",17,Western,RL,,2016-12-18,Sha Tin,Coffee Shop,$101-200,201601
B & B Light Food Restaurant,114.16889,Western,22.30815,"SHOP A-B, G/F, 87 BATTERY STREET, YAU MA TEI, KOWLOON",61,Western,RR,,2016-01-18,Sha Tin,Coffee Shop,$101-200,201601
B & W,114.18194,Western,22.27741,"G/F., NO. 20 & 22 YIU WA STREET, CAUSEWAY BAY, HONG KONG",12,Western,RR,,2016-09-28,Sha Tin,Coffee Shop,$101-200,201601
B B Pub,114.18889,Western,22.31763,"G/F & COCKLOFT, 62 JUNCTION ROAD, KOWLOON CITY, KOWLOON",52,Western,RR,,2016-06-30,Kowloon City,Wine,$51-100,201601
B B Queen,114.18916,Japanese,22.31254,"SHOP 1, G/F, BAILEY GARDEN, 23 BAILEY STREET, HUNG HOM, KOWLOON",52,Japanese,RL,,2016-04-21,Tsim Sha Tsui,Hot Pot,$101-200,201601
B ONE,114.18004,Mainland China,22.27594,"NO.2, PORTION OF G/F & BASEMENT, 80-82 MORRISON HILL ROAD, WAN CHAI, HONG KONG",12,Noodles/Rice Noodles,RR,,2016-10-19,Shau Kei Wan,Noodles/Rice Noodles,Below $50,201601
B Square Limited,114.19109,Japanese,22.27847,"G/F., 23 SCHOOL STREET, TAI HANG, HONG KONG",12,"Japanese, Bakery",RR,,2016-06-10,Wan Chai,Bakery,Below $50,201601
B Too,114.02452,Western,22.44132,"SHOP 19, G/F, CRYSTAL PARK, 50 MA TIN ROAD, YUEN LONG, NEW TERRITORIES",94,"International, Seafood",RR,,2016-06-17,Yuen Long,Seafood,$101-200,201601
B. A. M. LE GARDE MANGER,114.14732,Western,22.28554,"G/F., 6 PO YAN STREET, SHEUNG WAN, HONG KONG",18,Western,RR,,2016-04-08,Causeway Bay,Vegetarian,$101-200,201601
B. C. Lounge,114.1696,,22.32486,"G/F, 220 TUNG CHOI STREET, KOWLOON",62,,RR,#C,2016-05-07,,,,201601
B.B.Q. KINGDOM RESTAURANT,114.19571,Hong Kong Style,22.3818,"SHOP NO. 39, G/F, GARDEN RIVERA, 20-30 TAI CHUNG KIU ROAD, SHA TIN, NEW TERRITORIES",97,Thai,RL,,2016-04-27,Stanley,Thai,Below $50,201601
B.B.Q.Kingdom Restaurant,114.19513,Hong Kong Style,22.38102,"SHOP 40 & 41, LEVEL 1, GARDEN RIVERA, 20-30 TAI CHUNG KIU ROAD, SHA TIN, NEW TERRITORIES",97,Thai,RL,,2016-06-07,Stanley,Thai,Below $50,201601
B.L.T. Habitat,114.21002,,22.32064,"SHOP 101, 1/F, ONE KOWLOON, 1 WANG YUEN STREET, KOWLOON BAY, KOWLOON",51,,RL,,2016-11-14,,,,201601
B420 COFFEE HOUSE,114.13181,Western,22.36377,"SHOP A19 & A20, GROUND FLOOR, KWAI CHUNG CENTRE, 102 KWAI HING ROAD, KWAI CHUNG, NEW TERRITORIES",91,International,RL,,2016-01-06,Sheung Wan,Coffee Shop,Below $50,201601
BABA'S STATION,114.1151,Other,22.37237,"SHOP C1, G/F, TSUEN WAN BUILDING STAGE NO. 2, 77/81 HOI PA STREET, 2 & 6 LO TAK COURT, TSUEN WAN, NEW TERRITORIES",92,Curry,RL,,2016-11-11,Tsuen Wan,Curry,$51-100,201601
BABY BUDDHA,114.15485,Western,22.28173,"SHOPS 3 & 4, LG/F., WINSOME HOUSE, 73 WYNDHAM STREET, CENTRAL, HONG KONG",18,Western,RR,,2016-07-20,Central,Wine,$51-100,201601
BABY ONE,114.1788,Hong Kong Style,22.2995,"SHOP NO. C1, 33-45, UG/F, SOUTH SEAS CENTRE, 75 MODY ROAD, TSIM SHA TSUI, KOWLOON",61,,RR,,2016-09-22,Causeway Bay,Wine,$201-400,201601
BACK ALLEY BAR,114.17183,Western,22.2756,"SHOP B, G/F., HUNDRED CITY CENTRE, 7-17 AMOY STREET, WAN CHAI, HONG KONG",12,Western,RR,,2016-07-24,Central,,$101-200,201601
BACKYARD,114.13281,Western,22.3621,"SHOP 214, 2/F, BLOCK 2, KOWLOON COMMERCE CENTRE, 51 KWAI CHEONG ROAD, KWAI CHUNG, NEW TERRITORIES",91,Western,RL,,2016-07-07,Tseung Kwan O,Meatless Menu,$101-200,201601
"BACKYARD BISTRO PIZZA, PASTA & GRILL",114.16848,Western,22.44691,"SHOP A1, G/F, MEE WAH BUILDING, 12-18 WAN TAU STREET, TAI PO, NEW TERRITORIES",95,"Western, Seafood",RL,,2016-07-10,Lai Chi Kok,Seafood,$101-200,201601
BAFANG YUNJI,114.17613,Mainland China,22.27701,"SHOP 146, G/F., MING FUNG BUILDING, NOS. 128-150 WAN CHAI ROAD, WAN CHAI, HONG KONG",12,Noodles/Rice Noodles,RR,,2016-10-06,San Po Kong,Noodles/Rice Noodles,Below $50,201601
BAFANG YUNJI,114.22738,Mainland China,22.27722,"SHOP H, G/F., FUNG YUEN BUILDING, NOS. 388-414 SHAU KEI WAN ROAD, SHAU KEI WAN, HONG KONG",11,Noodles/Rice Noodles,RR,,2016-11-10,San Po Kong,Noodles/Rice Noodles,Below $50,201601
BAK KUT KING,114.19322,Western,22.27828,"SHOP 1, G/F., WUN SHA TOWER, 33-45 WUN SHA STREET, CAUSEWAY BAY, HONG KONG",12,International,RL,,2016-07-12,Tai Hang,Wine,$101-200,201601
BAKERY CAFE BORN 2 BAKE,114.15473,Hong Kong Style,22.2829,"G/F., NO. 73 WELLINGTON STREET, CENTRAL, HONG KONG",18,Japanese,RL,,2016-03-16,Central,Japanese,$201-400,201601
BAKUDANYA,114.1835,Japanese,22.28096,"UNIT 1103, 11/F., UNITED SUCCESS COMMERCIAL CENTRE, 506-508 JAFFE ROAD, CAUSEWAY BAY, HONG KONG",12,Japanese,RL,#G#H,2016-03-19,Causeway Bay,Ramen,$51-100,201601
BALCONY,114.19015,Mainland China,22.32121,"G/F, 57 SA PO ROAD, KOWLOON CITY, KOWLOON",52,"Guangdong, Stir-Fry",RR,,2016-06-23,Yau Ma Tei,Stir-Fry,$201-400,201601
BALI RESTAURANT,114.17204,Hong Kong Style,22.30627,"G/F & C/L, 8-10 NANKING STREET, JORDAN, KOWLOON",61,,RL,,2016-06-30,Kwai Chung,Indian,Below $50,201601
BAMBOO VILLAGE,114.16998,Mainland China,22.31164,"G/F, 265-267 TEMPLE STREET, JORDAN, KOWLOON",61,"Guangdong, Stir-Fry",RL,,2016-06-30,Jordan,Stir-Fry,$201-400,201601
BAN CHIU HIN,114.1925,South-east Asia,22.33092,"SHOP 2 & 3, G/F, BILLIONNAIRE ROYALE, 83 SA PO ROAD, KOWLOON CITY, KOWLOON",53,,RL,,2016-04-09,Admiralty,,$101-200,201601
BAN THAI RESTAURANT,114.21439,South-east Asia,22.284,"SHOP 3B, G/F., TAI KUT HOUSE, 7 GREIG ROAD, QUARRY BAY, HONG KONG",11,Thai,RL,,2016-01-12,Sai Kung,,Below $50,201601
BAN THAI RESTAURANT,114.27105,South-east Asia,22.37942,"G/F, 5 SAI KUNG HOI PONG STREET, SAI KUNG, NEW TERRITORIES",98,Thai,RL,,2016-10-21,Sai Kung,,Below $50,201601
BANGKOK BBQ,114.10752,South-east Asia,22.34449,"SHOP NOS. 91 & 112, LEVEL 3, BLOCK 7, MAYFAIR GARDEN, TSING YI, NEW TERRITORIES",91,Thai,RL,,2016-02-22,Ma On Shan,,$51-100,201601
BANGKOK TAI SPECIAL RESTAURANT,114.17055,Mainland China,22.3036,"SHOP E, G/F, NOS.1, 1A, 3-11 PARKES STREET, PARKES MANSION, KOWLOON",61,Guangdong,RL,,2016-12-17,Wan Chai,Private Kitchen,$401-800,201601
BANGKOK THAI RESTAURANT,114.12672,South-east Asia,22.35747,"SHOP NO. 501-510, LEVEL 5, METROPLAZA, 223 HING FONG ROAD, KWAI CHUNG, NEW TERRITORIES",91,Thai,RL,#G,2016-07-14,North Point,,$101-200,201601
BANGKOK THAI RESTAURANT,114.1876,South-east Asia,22.37977,"SHOP 709, LEVEL 7, NEW TOWN PLAZA, PHASE I, SHA TIN, NEW TERRITORIES",97,Thai,RL,,2016-05-17,North Point,,$101-200,201601
BANH MI BAKERY,114.19024,South-east Asia,22.32967,"SHOP A, G/F, FULIP HOUSE, NOS. 49 & 49A LUNG KONG ROAD, KOWLOON CITY, KOWLOON",52,Bakery,RL,,2016-05-06,Kowloon City,Bakery,$101-200,201601
BANQUET DELICIOUS,114.02465,Mainland China,22.43628,"SHOP C, G/F, PARK SIGNATURE, 68 KUNG UM ROAD, YUEN LONG, NEW TERRITORIES",94,"Guangdong, Seafood",RL,,2016-11-11,North Point,Seafood,$101-200,201601
BANQUET ICON,114.22563,Mainland China,22.31166,"9/F, CROCODILE CENTRE, 79 HOI YUEN ROAD, KWUN TONG, KOWLOON",51,Guangdong,RL,,2017-01-16,Wan Chai,Hot Pot,$201-400,201601
BAO BEI,114.15477,Other,22.28185,"G/F ENTRANCE AND SHOP 1 FIRST BASEMENT, CARFIELD COMMERCIAL BUILDINGS, 75-77 WYNDHAM STREET, CENTRAL, HONG KONG",18,,RR,,2016-06-01,Central,Lebanon,$401-800,201601
BAR BUONASERA,114.17445,Western,22.29709,"7/F, MODY HOUSE, NO. 30 MODY ROAD, TSIM SHA TSUI, KOWLOON",61,International,RR,,2016-02-06,Tsim Sha Tsui,Wine,$201-400,201601
BAR CODE,114.16458,Western,22.45256,"SHOP 37, G/F, TAI WO CENTRE, CHUI WO LANE, TAI PO, NEW TERRITORIES",95,Western,RR,,2016-06-18,Central,Wine,$51-100,201601
BAR EAST,114.16394,Western,22.3323,"G/F, 83 TAI PO ROAD, SHAM SHUI PO, KOWLOON",63,Western,RR,,2016-08-08,Prince Edward,Wine,$101-200,201601
BAR EAST,114.18808,Western,22.31606,"SHOP 4, G/F, GREAT WALL BUILDING, 16 TAM KUNG ROAD, KOWLOON CITY, KOWLOON",52,Western,RR,,2016-02-28,Prince Edward,Wine,$101-200,201601
BAR EAST,114.18854,Western,22.31793,"G/F, 17 NGAN HON STREET, TOKWAWAN, KOWLOON CITY, KOWLOON",52,Western,RL,,2016-06-30,Prince Edward,Wine,$101-200,201601
BAR EAST,114.19464,Western,22.33546,"SHOP 17, G/F, YIN HING BUILDING, 72 CHOI HUNG ROAD, SAN PO KONG, KOWLOON",53,Western,RR,,2016-11-14,Prince Edward,Wine,$101-200,201601
BAR G....,114.1822,Western,22.2777,"1/F., BARTLOCK CENTRE, 3 YIU WA STREET, CAUSEWAY BAY, HONG KONG",12,Western,RR,,2016-10-16,Tsim Sha Tsui,Wine,$51-100,201601
BAR GINGER,114.15236,Western,22.28448,"G/F. & COCKLOFT, NO. 12 ON WO LANE, CENTRAL, HONG KONG",18,International,RR,,2016-03-17,Tai Koo,Wine,$201-400,201601
BAR MU,114.17511,Hong Kong Style,22.29791,"8/F, SOHO TOWER, 25 HART AVENUE, TSIM SHA TSUI, KOWLOON",61,Bakery,RR,,2016-05-04,Chai Wan,Bakery,Below $50,201601
BAR ONE,114.17394,Western,22.30317,"1/F, GOLDEN GATE COMMERCIAL BUILDING, 136-138 AUSTIN ROAD, TSIM SHA TSUI, KOWLOON",61,International,RR,,2016-04-18,Tai Po,Wine,$201-400,201601
BAR PACIFIC,113.97699,Western,22.39836,"SHOP NOS. 1-3, GROUND FLOOR, KAM HING BUILDING, 169-181 CASTLE PEAK ROAD, TUEN MUN, NEW TERRITORIES",93,International,RR,,2016-11-17,Tsim Sha Tsui,Wine,$101-200,201601
BAR PACIFIC,114.14137,Western,22.28681,"SHOP A, G/F., NEW START BUILDING, NOS. 330-336 QUEEN'S ROAD WEST, HONG KONG",18,International,RR,,2016-11-19,Tsim Sha Tsui,Wine,$101-200,201601
BAR PACIFIC,114.14162,Western,22.49918,"G/F & C/L, 19 WO TAI STREET, LUEN WO HUI, FANLING, NEW TERRITORIES",96,International,RR,,2016-06-09,Tsim Sha Tsui,Wine,$101-200,201601
BAR PACIFIC,114.14164,Western,22.49882,"G/F, 33 LUEN HING STREET, FANLING, NEW TERRITORIES",96,International,RR,,2016-11-04,Tsim Sha Tsui,Wine,$101-200,201601
BAR PACIFIC,114.15201,Western,22.24857,"SHOP 1 & SHOP 2, G/F., NOS. 238 ABERDEEN MAIN ROAD, ABERDEEN, HONG KONG",15,International,RR,,2016-05-19,Tsim Sha Tsui,Wine,$101-200,201601
BAR PACIFIC,114.16658,Western,22.44912,"SHOP B1, G/F, CENTRAL PLAZA, 51-59 KWONG FUK ROAD, TAI PO, NEW TERRITORIES",95,International,RR,,2016-04-24,Tsim Sha Tsui,Wine,$101-200,201601
BAR PACIFIC,114.19692,Western,22.34301,"G/F, 31 FUNG TAK ROAD, N.K.I.L.5030, WONG TAI SIN, KOWLOON",53,International,RR,,2016-04-18,Tsim Sha Tsui,Wine,$101-200,201601
BAR PACIFIC,114.19701,Western,22.29203,"PORTIONS OF G/F, AND BASEMENT, YEN PO COURT, 74-82 WHARF ROAD, NORTH POINT, HONG KONG",11,International,RR,,2016-12-16,Tsim Sha Tsui,Wine,$101-200,201601
BAR PACIFIC,114.22367,Western,22.31576,"G/F, 66 HONG NING ROAD, KWUN TONG, KOWLOON",51,International,RR,,2016-12-29,Tsim Sha Tsui,Wine,$101-200,201601
BAR PACIFIC,114.22615,Western,22.31786,"SHOP D, D1 & G, G/F, KIN TAI HOUSE, 89-113 WAN HON STREET, KWUN TONG, KOWLOON",51,International,RR,,2016-05-13,Tsim Sha Tsui,Wine,$101-200,201601
BAR PACIFIC LXIX,114.13534,Western,22.36712,"SHOP B & C, G/F, BLOCK A, MING TONG BUILDING, 444-448 CASTLE PEAK ROAD, KWAI CHUNG, NEW TERRITORIES",91,International,RR,,2016-02-02,Sha Tin,Wine,$101-200,201601
BAR POCKET,114.17511,Western,22.29791,"16/F, NO. 25 HART AVENUE, TSIM SHA TSUI, KOWLOON",61,Western,RR,,2016-08-03,Central,Wine,$201-400,201601
BAR109,114.12832,Western,22.28274,"G/F & M/F., NO. 109 LOCKHART ROAD, WANCHAI, HONG KONG",12,,RR,,2016-03-15,Tsim Sha Tsui,Wine,$101-200,201601
BARBECUE KING,114.17334,Hong Kong Style,22.376,"G/F, 118A HIN TIN VILLAGE, TAI WAI, SHA TIN, NEW TERRITORIES",97,,RR,,2016-10-18,Tai Wai,Skewer,$101-200,201601
BARISTA CAFFE,114.17068,Western,22.29714,"3/F, 18 ASHLEY ROAD, TSIM SHA TSUI, KOWLOON",61,"Western, All Day Breakfast",RR,,2016-08-12,Tsim Sha Tsui,All Day Breakfast,$51-100,201601
BARISTA JAM,114.2597,Western,22.31928,"FLAT D, G/F & M/F, CARBO MANSION, 126-128 JERVOIS STREET, SHEUNG WAN, HONG KONG",18,,RR,,2016-07-22,Sheung Wan,Italian,Below $50,201601
BASMATI,114.15171,Western,22.28709,"1/F., SAN TOI BUILDING, 137-139 CONNAUGHT ROAD CENTRAL, CENTRAL, HONG KONG",18,Western,RL,,2016-06-30,Central,Coffee Shop,$51-100,201601
BASS PUB,114.02297,Hong Kong Style,22.44701,"SHOP 4, G/F, LUEN FAT HOUSE, 14-48 PING CHEONG PATH / 11-13 MA WANG ROAD, YUEN LONG, NEW TERRITORIES",94,Western,RR,,2016-12-23,Tsim Sha Tsui,Western,$51-100,201601
BAYI Restaurant,114.13902,Mainland China,22.28527,"G/F., NO. 43 WATER STREET, WESTERN DISTRICT, HONG KONG",18,,RL,,2017-01-02,Western District,,$101-200,201601
BBQ,114.13955,South-east Asia,22.28564,"G/F (MAJOR PORTION), YEN SHUN MANSION, NO. 142B THIRD STREET, SAI YING PUN, HONG KONG",18,Thai,RR,,2016-10-21,Tsz Wan Shan,Skewer,Below $50,201601
BBQ,114.14584,South-east Asia,22.28544,"G/F., 129 THIRD STREET, SAI YING PUN, HONG KONG",18,Thai,RL,,2016-04-08,Tsz Wan Shan,Skewer,Below $50,201601
BBQ 7080 ASHLEY,114.17029,,22.29757,"G/F, 35 ASHLEY ROAD, TSIM SHA TSUI, KOWLOON",61,,RL,,2016-07-14,,,,201601
BBQ 7080 Causeway Bay,114.18202,,22.27928,"2/F., CIRCLE TOWER, 28 TANG LUNG STREET, CAUSEWAY BAY, HONG KONG",12,,RL,#F,2016-07-24,,,,201601
BBQ 7080 MONGKOK,114.17056,,22.31585,"13/F, CTMA CENTRE, NO. 1N SAI YEUNG CHOI STREET SOUTH, KOWLOON",62,,RL,,2016-02-20,,,,201601
BBQ 7080 TIN HAU,114.1923,,22.28494,"G/F., 15 TSING FUNG STREET, TIN HAU, HONG KONG",11,,RL,,2016-09-10,,,,201601
BBQ BROTHERS,114.17022,Korean,22.30462,"SHOP D, G/F, KAM CHUNG BUILDING, 138 WOOSUNG STREET, YAU MA TEI, KOWLOON",61,BBQ,RL,,2016-05-13,Tai Wai,BBQ,$101-200,201601
BBQ Brothers,114.17524,Korean,22.29998,"SHOP G1, G/F, J-MALL, DELITE MANSION, 3 GRANVILLE CIRCUIT, KOWLOON",61,BBQ,RL,#G#H,2016-07-17,Tai Wai,BBQ,$101-200,201601
BBQ Han Cook,114.18801,Korean,22.30624,"SHOP NO. F1, G/F, WING WAH & YUEN WAH BUILDING (BLOCKS F & G), WHAMPOA ESTATE, 2-32 MAN TAI STREET, 17-27, 27A-G TAK MAN STREET, HUNG HOM, KOWLOON",52,,RL,,2016-01-25,Hung Hom,Hot Pot,$101-200,201601
BBQ LOBSTER,114.16703,Hong Kong Style,22.30721,"SHOP 4, G/F, MAN YING BUILDING, MAN YING STREET, JORDAN, KOWLOON",61,,RR,,2016-06-03,Sai Kung,BBQ Ground,$51-100,201601
BBQ Lobster,114.16695,Hong Kong Style,22.3069,"G/F, 7 MAN YING STREET, JORDAN, KOWLOON",61,,RL,,2016-06-30,Sai Kung,BBQ Ground,$51-100,201601
BBQ MILITARY KOREAN RESTAURANT,114.11671,Korean,22.37007,"18/F, TAI HUNG FAI (TSUEN WAN) CENTRE, 55 CHUNG ON STREET, TSUEN WAN, NEW TERRITORIES",92,,RL,,2016-03-14,Tsim Sha Tsui,Korean BBQ,$201-400,201601
BBQ7080YO,114.16776,,22.32593,"SHOP 2A, G/F, 789 NATHAN ROAD, MONG KOK, KOWLOON",62,,RL,,2016-06-30,,,,201601
BB開心棧,114.2189,Hong Kong Style,22.47282,"G/F AND OPEN SPACE AT REAR OF 60, LUNG MEI VILLAGE, TING KOK ROAD, TAI PO, NEW TERRITORIES",95,,RL,#A,2016-03-24,Tai Po,,$51-100,201601
BEACH CLUB CAFE,114.17423,Western,22.30142,"G/F, 13-13A KNUTSFORD TERRACE, TSIM SHA TSUI, KOWLOON",61,Western,RL,,2016-06-17,Sai Kung,Wine,$51-100,201601
BEANS CO,114.11561,Western,22.37219,"G/F, 99 HOI PA STREET, TSUEN WAN, NEW TERRITORIES",92,"Western, All Day Breakfast",RL,,2016-04-21,Tuen Mun,All Day Breakfast,$51-100,201601
BEANS The Backyard,114.26157,Western,22.30848,"SHOP UNIT F95, LEVEL 1, POPCORN, 9 TONG CHUN STREET, TSEUNG KWAN O, SAI KUNG, NEW TERRITORIES",98,Western,RL,,2016-05-15,Tseung Kwan O,Meatless Menu,$101-200,201601
BEANS The Corner,114.11561,Western,22.37219,"SHOP 1B, G/F, CHEONG TAI BUILDING, 97-101 HOI PA STREET, TSUEN WAN, NEW TERRITORIES",92,Western,RR,,2016-06-02,Tseung Kwan O,Meatless Menu,$101-200,201601
BEAT,114.16939,Western,22.32571,"SHOP 1, G/F, LOK HING MANSION, 240-242 TUNG CHOI STREET, MONG KOK, KOWLOON",62,Western,RR,,2016-12-30,Tsim Sha Tsui,Wine,$201-400,201601
BEBE V,114.13116,Hong Kong Style,22.20485,"GROUND FLOOR, NO. 16 FIRST STREET, SOK KWU WAN, LAMMA ISLAND, HONG KONG",17,Bakery,RR,,2016-08-27,Lamma Island,Bakery,Below $50,201601
BEE TWO,114.1533,Western,22.2844,"UG/F., 166 WELLINGTON STREET, CENTRAL, HONG KONG",18,Western,RL,,2016-07-21,Western District,Coffee Shop,$51-100,201601
BEEF & LIBERTY,114.16805,South-east Asia,22.27661,"THE SECOND FLOOR OF NOS. 23-29 WING FUNG STREET, HONG KONG",12,,RL,,2016-01-12,Western District,,Below $50,201601
BEEF & LIBERTY,114.20943,South-east Asia,22.21988,"SHOP G04, G/F., STANLEY PLAZA, MA HANG ESTATE, 23 AND 33 CARMEL ROAD, STANLEY, HONG KONG",15,,RL,,2016-05-10,Western District,,Below $50,201601
BEEF KING,114.17939,Western,22.36715,"G/F & M/F, REGAL DRAGON CENTRE, 149-151 WOOSUNG STREET, YAU TSIM, KOWLOON",61,International,RL,,2016-04-24,Delivery Only,Online Shop/ Food Distributor,Below $50,201601
BEEF NOODLE BOX,114.20027,Mainland China,22.29005,"SHOP 23, G/F., BLOCK C, TUNG FAT BUILDING, NO. 41A KAM PING STREET, NORTH POINT, HONG KONG",11,"Guangdong, Noodles/Rice Noodles",RR,,2016-05-08,Central,Noodles/Rice Noodles,Below $50,201601
BEEFBAR,114.15734,Western,22.27991,"2/F., CLUB LUSITANO, NO. 16 ICE HOUSE STREET, CENTRAL, HONG KONG",18,Western,RL,,2016-04-26,Central,Fine Dining,Above $801,201601
BEER & FISH,114.15195,Western,22.28283,"SHOP C, G/F., 67 STAUNTON STREET, HONG KONG",18,Western,RL,,2016-11-25,Causeway Bay,American,$101-200,201601
BEER GARDEN,114.11215,Mainland China,22.22655,"FLAT B, G/F., 23B YUNG SHUE WAN MAIN STREET, LAMMA ISLAND, HONG KONG",17,Guangdong,RL,,2016-03-10,Lamma Island,Guangdong,$51-100,201601
BEIDOUWENG CUISINE,114.18316,,22.2783,"19/F., LEE THEATRE PLAZA, 99 PERCIVAL STREET, CAUSEWAY BAY, HONG KONG",12,,RL,#G#H,2016-10-27,,,,201601
BEIJING BARBECUE CUISINE,114.25781,Western,22.32323,"SHOP NO. UG89-94, UG/F, METRO CITY, PHASE II, TSEUNG KWAN O , SAI KUNG, NEW TERRITORIES",98,International,RL,,2016-09-27,Central,Vegetarian,$101-200,201601
BEIJING RESTAURANT,114.17436,Mainland China,22.29834,"SHOP 202, 2/F, MULTIFIELD PLAZA, 3-7A PRAT AVENUE, TSIM SHA TSUI, KOWLOON",61,,RL,,2016-04-09,Tsim Sha Tsui,Shanghai,$201-400,201601
BEL CIBO RESTAURANT,114.17455,,22.29958,"12/F, H8, 8 HAU FOOK STREET, TSIM SHA TSUI, KOWLOON",61,,RL,#F,2017-01-12,,,,201601
BELGICA,114.12731,Western,22.2829,"ROOM B2, G/F., HAU WO COURT, 25-33 HAU WO STREET, KENNEDY TOWN, HONG KONG",18,,RR,,2016-07-24,Causeway Bay,Wine,$201-400,201601
BENE ITALIAN,114.1879,Japanese,22.37925,"SHOP NO. 103A, LEVEL 1, NEW TOWN PLAZA, PHASE 1, SHA TIN, NEW TERRITORIES",97,Japanese,RL,,2016-06-28,Tsim Sha Tsui,Italian,$401-800,201601
BEPPU,114.16635,Mainland China,22.45245,"SHOP NO. 10, G/F, EIGHTLAND GARDENS, TAI PO, NEW TERRITORIES",95,Guangdong,RL,#G#H,2016-11-07,Tai Po,Hong Kong Style,$101-200,201601
BEPPU,114.20123,Mainland China,22.39893,"SHOP NOS. G67-70, G/F, PLAZA ASCOT, 1 TSUN KING ROAD, FO TAN, SHA TIN, NEW TERRITORIES",97,Guangdong,RL,#G#H,2016-05-10,Tai Po,Hong Kong Style,$101-200,201601
BEPPU EKIMAE,114.11759,,22.37057,"SHOP NO. 3012, 3/F, CITY LANDMARK I, 68 CHUNG ON STREET, TSUEN WAN, NEW TERRITORIES",92,,RL,#G#H,2016-10-22,,,,201601
BEPPU EKIMAE,114.21641,,22.3241,"SHOP NO. G142, G/F, AMOY PLAZA, AMOY GARDENS PHASE I, 77 NGAU TAU KOK ROAD, KOWLOON",51,,RL,#G#H,2016-04-22,,,,201601
BEPPU EKIMAE,114.26271,,22.30826,"SHOP NO. 1-005, LEVEL 1, TSEUNG KWAN O PLAZA, 1 TONG TAK STREET, TSEUNG KWAN O, SAI KUNG, NEW TERRITORIES",98,,RL,#G#H,2016-03-17,,,,201601
BERLINER,113.97719,Western,22.39297,"SHOPS 3227-3228, 3/F, TUEN MUN TOWN PLAZA PHASE 1, 1 TUEN SHING STREET, TUEN MUN, NEW TERRITORIES",93,,RL,,2016-08-13,Pok Fu Lam,Wine,$101-200,201601
BERLINER,114.16459,Western,22.31752,"SHOP G18, G/F AND OUTSIDE SEATING ACCOMMODATION, OLYMPIAN CITY 3, 1 HOI WANG ROAD, KOWLOON",62,,RL,#A,2017-01-18,Pok Fu Lam,Wine,$101-200,201601
BERLINER,114.18993,Western,22.30405,"SHOP NO. G10, GROUND FLOOR, SITE 4, WHAMPOA GARDEN, HUNG HOM, KOWLOON",52,,RL,,2016-06-03,Pok Fu Lam,Wine,$101-200,201601
BESPOKE,114.21022,Western,22.31969,"SHOP G01, G/F, MANHATTAN PLACE, 23 WANG TAI ROAD, KOWLOON BAY, KOWLOON",51,"Western, Bakery",RR,,2016-04-25,Central,Bakery,$201-400,201601
BEST,114.17668,Other,22.29996,"SHOP NO.1-3, UG/F, ENERGY PLAZA, 92 GRANVILLE ROAD, TSIM SHA TSUI EAST, KOWLOON",61,,RR,#B,2016-07-20,Lamma Island,,Below $50,201601
BEST RESTAURANT,114.16966,Western,22.30763,"G/F, 177 SHANGHAI STREET, YAU MA TEI, KOWLOON",61,"Western, Tea Restaurant",RR,,2016-02-26,To Kwa Wan,Tea Restaurant,Below $50,201601
BFC Indian Curry House,114.03092,Other,22.44592,"G/F, 35 YUEN LONG TAI CHEUNG STREET, YUEN LONG, NEW TERRITORIES",94,Curry,RR,,2016-04-24,Jordan,Curry,$51-100,201601
BIBIM,114.17098,Korean,22.31626,"SHOP N, G/F, WITTY COMMERCIAL BUILDING, 1A-1L TUNG CHOI STREET, KOWLOON",62,,RL,,2017-01-07,Mong Kok,Korean Fried Chicken,$51-100,201601
BIEN BISTRO,114.11431,Western,22.37,"SHOP 117, 1/F, CITYWALK, 1 YEUNG UK ROAD, TSUEN WAN, NEW TERRITORIES",92,,RR,,2017-02-05,Western District,Roast Meat,$101-200,201601
BIER HUT RESTAURANT,113.9768,Western,22.39726,"SHOP L, G/F, FAR EAST CONSORTIUM TUEN MUN CENTRAL BUILDING, 1-29 TAT YAN SQUARE, TUEN MUN, NEW TERRITORIES",93,Western,RR,,2016-03-02,Sham Shui Po,Wine,$101-200,201601
BIERGARTEN,114.17433,Western,22.29766,"SHOP 1, G/F, PODIUM PLAZA, 5 HANOI ROAD, KOWLOON",61,,RL,,2016-04-06,Tsim Sha Tsui,Wine,$201-400,201601
BIG FERNAND,114.15805,Western,22.28468,"SHOP 2017, PODIUM LEVEL 2, IFC MALL, 1 HARBOUR VIEW STREET, CENTRAL, HONG KONG",18,International,RL,,2016-09-06,Sha Tin,,$51-100,201601
BIG JO'S,114.16985,Western,22.27677,"SHOP C, G/F., 5-9 GRESSON STREET, WAN CHAI, HONG KONG",12,,RL,,2016-02-25,Tsim Sha Tsui,Wine,$201-400,201601
BIG PAN,114.17455,Western,22.29958,"11/F, H8, NO. 8 HAU FOOK STREET, TSIM SHA TSUI, KOWLOON",61,International,RL,,2016-04-28,Mong Kok,Pizza,$201-400,201601
BIG SMILE RESTAURANT,114.1771,Hong Kong Style,22.36874,"SHOP G1, G/F, CARADO GARDEN, 10-30 TIN SAM STREET, SHA TIN, NEW TERRITORIES",97,Tea Restaurant,RL,,2016-07-18,Tai Wai,Tea Restaurant,Below $50,201601
BIGPACK Café,114.17108,Western,22.31882,"3/F, 76A-E FA YUEN STREET, MONG KOK, KOWLOON",62,International,RL,,2016-03-19,Mong Kok,Pizza,$201-400,201601
BILEBALA BAR AND CAFE,114.17021,Western,22.31628,"22/F, MONGKOK METRO, 594-596 NATHAN ROAD, MONG KOK, KOWLOON",62,International,RR,,2016-09-27,Mong Kok,Wine,$101-200,201601
BILLIDART RESTAURANT BAR,114.17798,,22.27927,"8/F., NO. 6 TONNOCHY ROAD, WAN CHAI, HONG KONG",12,,RR,,2016-07-04,,,,201601
BILLY BOOZER,114.18834,Western,22.31705,"SHOPS 20-23, G/F, 320 JUNCTION ROAD, KOWLOON CITY, KOWLOON",52,Western,RL,,2016-06-30,Kowloon Tong,Wine,Below $50,201601
BISTRO DELIFRANCE,113.93906,Western,22.28824,"SHOP 16, G/F., TUNG CHUNG CRESCENT, 2 MEI TUNG STREET, TUNG CHUNG, LANTAU ISLAND, NEW TERRITORIES",17,,RL,,2016-02-07,Kowloon Bay,,$51-100,201601
BISTRO DU VIN,114.12661,Western,22.28247,"G/F., 1D DAVIS STREET, KENNEDY TOWN, HONG KONG",18,,RL,,2016-04-24,Western District,,$201-400,201601
BITTERSWEET CAFE,114.14219,,22.49814,"SHOP 4, G/F, WO FUNG COURT, 2-12 WO FUNG STREET, LUEN WO HUI, FANLING, NEW TERRITORIES",96,,RR,,2016-11-19,,,,201601
BLESSING DESSERT,114.15619,Hong Kong Style,22.24894,"SHOP NO. 3, G/F., SIU KWAN MANSION, 118-120 OLD MAIN STREET, ABERDEEN, HONG KONG",15,,RR,,2016-06-01,Diamond Hill,Food Stall Noodles,Below $50,201601
BLISS BAR,114.16883,Western,22.32576,"SHOP B, G/F, TUNG FAT HOUSE, 306-310A SAI YEUNG CHOI STREET NORTH, MONG KOK, KOWLOON",62,Western,RR,,2016-05-05,Prince Edward,Wine,$101-200,201601
BLISS PUB,114.03278,Western,22.44402,"SHOP NO. 17 & 18, G/F, WAI FAT BUILDING, FUNG CHEUNG ROAD, YUEN LONG, NEW TERRITORIES",94,Western,RR,,2016-12-03,Yuen Long,Wine,$101-200,201601
BLOOM,114.1848,Western,22.27962,"5/F. AND 6/F., LKF TOWER, 33 WYNDHAM STREET, CENTRAL, HONG KONG",18,Western,RL,#F,2017-01-02,Tsim Sha Tsui,Coffee Shop,Below $50,201601
BLT Burger,114.16735,Western,22.29513,"SHOP OT301-OT301A, LEVEL 3, OCEAN TERMINAL, HARBOUR CITY, TSIM SHA TSUI, KOWLOON",61,Western,RL,,2016-06-23,Ngau Tau Kok,Hamburger,$51-100,201601
BLT Burger,114.18247,Western,22.27828,"SHOP B224A, BASEMENT 2, TIMES SQUARE, 1 MATHESON STREET, HONG KONG",12,Western,RL,,2017-01-27,Ngau Tau Kok,Hamburger,$51-100,201601
BLT STEAK,114.16735,Western,22.29513,"SHOP OT G62, GROUND FLOOR, OCEAN TERMINAL, HARBOUR CITY, TSIM SHA TSUI, KOWLOON",61,Western,RL,#F,2016-06-21,Tsim Sha Tsui,Western,$201-400,201601
BLUE BUTCHER,114.18539,Western,22.27031,"RESTAURANT 1, G/F & M/F, 108 HOLLYWOOD ROAD, CENTRAL, HONG KONG",18,,RL,,2016-12-02,Tsim Sha Tsui,Hotel Restaurant,$401-800,201601
BLUEPLACE CAFE,114.12876,Western,22.28283,"SHOP A (PORTION), G/F., SAI ON HOUSE, NO. 93-95 BELCHER'S STREET, HONG KONG",18,Western,RR,,2016-06-15,Wan Chai,Western,$51-100,201601
BO INNOVATION,114.17109,Western,22.27622,"SHOP NO. 13, 2/F OF J RESIDENCE, NO. 60 JOHNSTON ROAD, WAN CHAI, HONG KONG",12,International,RL,,2016-12-18,Central,Fine Dining,Above $801,201601
BO-LO'GNE CAFE AND BAR,114.1838,Western,22.27977,"SHOP NO. 1303, 13/F., HYSAN PLACE, NO. 500 HENNESSY ROAD, CAUSEWAY BAY, HONG KONG",12,International,RL,,2016-06-12,Tai Hang,Wine,$51-100,201601
BO-LO'GNE Cafe and Bar,114.19772,Western,22.3979,"G/F. & M/F., 52 GAGE STREET, CENTRAL, HONG KONG",18,International,RR,,2016-02-09,Tai Hang,Wine,$51-100,201601
BOARDWAY DANCING ROOM,114.17027,Hong Kong Style,22.30502,"1/F, 118 WOOSUNG STREET, JORDAN, KOWLOON",61,,RR,,2016-06-30,To Kwa Wan,Skewer,$51-100,201601
BOAT DWELLER LIFE CONGEE,114.14316,Mainland China,22.49982,"G/F, 39 LUEN ON STREET, LUEN WO MARKET, FANLING, NEW TERRITORIES",96,"Guangdong, Noodles/Rice Noodles",RL,,2016-07-18,Kowloon City,Noodles/Rice Noodles,$101-200,201601
BOBA BEAR,114.15223,Western,22.28189,"G/F., 31 ELGIN STREET, CENTRAL, HONG KONG",18,Western,RR,,2016-09-13,Central,Wine,$101-200,201601
BOBA BEAR,114.18164,Western,22.27726,"30/F., 38 YIU WAH STREET, CAUSEWAY BAY, HONG KONG",12,Western,RR,,2016-05-11,Central,Wine,$101-200,201601
BOBBY LONDON INN,114.16903,Western,22.44791,"G/F & C/L, 147 KWONG FUK ROAD, TAI PO, NEW TERRITORIES",95,International,RR,,2016-06-30,Tai Po,Wine,$101-200,201601
BOCADITO,114.15284,Western,22.2818,"GROUND FLOOR SHOP, 40 STAUNTON STREET, CENTRAL, HONG KONG",18,,RL,,2016-08-16,Central,Wine,$101-200,201601
BOIL TO EIGHT,114.00049,Western,22.45208,"SHOP B12A, 1/F, PHASE 1, KINGSWOOD RICHLY PLAZA, KINGSWOOD VILLAS, 1 TIN WU ROAD, TIN SHUI WAI, YUEN LONG, NEW TERRITORIES",94,"International, Noodles/Rice Noodles",RL,,2016-09-09,Tin Shui Wai,Noodles/Rice Noodles,$51-100,201601
BOMBAY BAR & RESTAURANT,114.11202,Other,22.22529,"G/F., 6 YUNG SHUE WAN BACK STREET, YUNG SHUE WAN, LAMMA ISLAND, NEW TERRITORIES",17,Curry,RL,,2016-11-07,Lamma Island,Curry,$51-100,201601
BOOMSHACK,114.15521,Japanese,22.28162,"SHOP B ON GROUND FLOOR, WO ON BUILDING, NOS. 8, 9, 11 & 12 WO ON LANE, HONG KONG",18,Japanese,RL,,2016-09-22,Tsim Sha Tsui,French,Above $801,201601
BOSS CLUB,114.17587,Western,22.30212,"1/F, WOON LEE COMMERCIAL BUILDING, NOS. 7-9 AUSTIN AVENUE, KOWLOON",61,Western,RR,,2016-04-26,Tsuen Wan,Western,$51-100,201601
BOUJIS,114.15455,Western,22.28223,"SHOP NOS 2-8, UG/F, CAR PO COMMERCIAL BUILDING, 37-43 POTTINGER STREET, 18-20 LYNDHURST TERRACE, HONG KONG",18,,RR,,2016-03-25,Causeway Bay,Fine Dining,Above $801,201601
BOULDER 7 PUB,114.17484,Western,22.29785,"2/F, HAI XIN BUILDING, 15-17 HART AVENUE, TSIM SHA TSUI, KOWLOON",61,International,RR,,2016-07-26,Cheung Sha Wan,Juice,$51-100,201601
BOUNDARY,114.17555,Western,22.30021,"SHOP G2, G/F, DELITE MANSION, 1-3 GRANVILLE CIRCUIT, TSIM SHA TSUI, KOWLOON",61,International,RR,,2016-01-20,North Point,Hamburger,$101-200,201601
BRANTO,114.1718,Other,22.2977,"1/F, 9 LOCK ROAD, TSIM SHA TSUI, KOWLOON",61,,RL,,2016-05-19,Tsim Sha Tsui,Vegetarian,$51-100,201601
BRASSERIE BELGICA,114.12731,Western,22.2829,"SHOP C, G/F., HAU WO COURT, NO. 25-33 HAU WO STREET, KENNEDY TOWN, HONG KONG",18,British,RR,,2016-03-08,Wan Chai,Wine,$101-200,201601
BRASSERIE LE FAUCHON,114.1524,Western,22.28252,"G/F, 45 ELGIN STREET, CENTRAL, HONG KONG",18,,RL,,2016-03-31,Central,Wine,$401-800,201601
BREAD N BUTTER CAFE,114.15189,Western,22.2835,"MINOR PORTION OF UNIT G01-G05, BLOCK B, GROUND FLOOR, PMQ, 35 ABERDEEN STREET, CENTRAL, HONG KONG",18,Western,RL,,2016-05-04,Wan Chai,Western,$101-200,201601
BREAD STREET KITCHEN,114.15512,Hong Kong Style,22.2804,"M/F., LKF TOWER, 33 WYNDHAM STREET, CENTRAL, HONG KONG",18,Tea Restaurant,RL,,2016-03-02,Sai Wan Ho,Tea Restaurant,$51-100,201601
BREAD TREE,114.17357,Western,22.2786,"SHOP 9, G/F., KIN LEE BUILDING, NO. 130-146 JAFFE ROAD, WANCHAI, HONG KONG",12,Western,RR,,2016-11-07,Wan Chai,,Below $50,201601
BREADTALK CONCEPT - JD MALL,114.17134,Hong Kong Style,22.30488,"SHOP C, G/F, JD MALL, 233-239 NATHAN ROAD, KOWLOON",61,Bakery,RL,,2016-01-12,Jordan,Bakery,Below $50,201601
BREAKS,114.12791,Hong Kong Style,22.28313,"COCKLOFT & SHOP A, G/F., KAM FAI HOUSE, 36-40 CATCHICK STREET, KENNEDY TOWN, HONG KONG",18,Thai,RR,,2016-02-23,Prince Edward,Thai,$101-200,201601
BREAKS,114.16783,Hong Kong Style,22.32757,"SHOP A, G/F, MAY BONG MANSION, 221-225 SAI YEUNG CHOI STREET NORTH, SHAM SHUI PO, KOWLOON",63,Thai,RR,,2016-03-17,Prince Edward,Thai,$101-200,201601
BRESOLA,114.12693,Western,22.28297,"SHOP D, G/F., YUE ON BUILDING, 78-86 CATCHICK STREET, SAI WAN, HONG KONG",18,Seafood,RL,,2016-08-22,Western District,Seafood,$101-200,201601
BRICK LANE,114.16719,Western,22.28061,"FLAT NO. 404, 4/F., CITIC TOWER, NO. 1 TIM MEI AVENUE, CENTRAL, HONG KONG",18,"British, Western",RL,,2016-04-23,Tai Wai,Western,$101-200,201601
BRICK LANE,114.17443,Western,22.29698,"SHOP B, C, D, E, G/F, RICH TOWERS, 2 BLENHEIM AVENUE, TSIM SHA TSUI, KOWLOON",61,"British, Western",RL,,2016-11-21,Tai Wai,Western,$101-200,201601
BRICK LANE GALLERY,114.17493,Western,22.29685,"SHOP 1, 2 & 3, G/F, WAH FUNG BUILDING, 17-23 MINDEN AVENUE, TSIM SHA TSUI, KOWLOON",61,"British, Western",RL,,2016-10-21,Tsim Sha Tsui,Western,$101-200,201601
BRICKHOUSE,114.15574,Western,22.28112,"G/F., NO. 20A D'AGUILAR STREET, CENTRAL, HONG KONG",18,International,RL,,2016-12-16,Tsim Sha Tsui,Steak House,$201-400,201601
BRIDAL TEA HOUSE,114.17062,Western,22.31112,"PORTION OF 1/F, 6 ARTHUR STREET, KOWLOON",61,Western,RL,,2016-12-19,Hung Hom,Meatless Menu,$51-100,201601
BRIDAL TEA HOUSE,114.17064,Western,22.31099,"SHOP 9-15, SHOP17-19, G/F, 5-5C WING SING LANE, YAU MA TEI, KOWLOON",61,Western,RL,,2016-05-12,Hung Hom,Meatless Menu,$51-100,201601
BRIDAL TEA HOUSE,114.18511,Western,22.30818,"1/F, 69 GILLIES AVENUE SOUTH, HUNG HOM, KOWLOON",52,Western,RL,,2016-04-23,Hung Hom,Meatless Menu,$51-100,201601
BRIDAL TEA HOUSE,114.18908,Western,22.32422,"PORTION OF SHOP A&B, G/F, 14-18 SUNG WONG TOI ROAD, KOWLOON",52,Western,RL,,2016-08-06,Hung Hom,Meatless Menu,$51-100,201601
BRIDGES,114.18789,Japanese,22.2793,"6TH FLOOR, NO.1 HOI PING ROAD, CAUSEWAY BAY, HONG KONG",12,Japanese,RL,#G#H,2016-07-11,Causeway Bay,Group Dining,$101-200,201601
BRIVO,114.15216,Western,22.28239,"SHOP E, G/F., 63-63A PEEL STREET & 36, 36A, 36B STAUNTON STREET, CENTRAL, HONG KONG",18,Western,RL,,2016-05-17,Sheung Wan,Western,$101-200,201601
BROTHER'S KITCHEN,114.17729,Hong Kong Style,22.29906,"SHOP 117-119, PENINSULA CENTRE, 67 MODY ROAD, TSIM SHA TSUI, KOWLOON",61,Tea Restaurant,RL,,2016-05-19,Tsim Sha Tsui,Tea Restaurant,$51-100,201601
BROTHERHOOD,114.19741,Hong Kong Style,22.38019,"SHOP 21, G/F, BLOCK B, CHUEN FAI CENTRE, 9-11 KONG PUI STREET, SHA TIN, NEW TERRITORIES",97,,RL,,2016-03-01,Tai Kok Tsui,,$51-100,201601
